stop_id,stop_code,stop_name,stop_desc,stop_lat,stop_lon,zone_id,stop_url,location_type,parent_station,wheelchair_boarding
1000,,"FRONT/CORMIER ouest",,  45.404030, -75.854888,,,0,,2
1001,,"FRONT/de la TERRASSE-EARDLEY est",,  45.407530, -75.856219,,,0,,2
1002,,"FRONT/CORMIER est",,  45.403941, -75.854720,,,0,,2
1003,,"FRONT/de la TERRASSE-EARDLEY ouest",,  45.407439, -75.856409,,,0,,2
1004,,"FRONT/PEARSON est",,  45.402769, -75.854946,,,0,,2
1005,,"FRONT/de la TERRASSE-EARDLEY est",,  45.406189, -75.855087,,,0,,2
1006,,"FRONT/PEARSON ouest",,  45.402948, -75.855114,,,0,,1
1007,,"des ALLUMETTIÈRES/BROAD sud",,  45.409655, -75.848941,,,0,,2
1009,,"des ALLUMETTIÈRES/KLOCK sud",,  45.409826, -75.850106,,,0,,2
1014,,"BROOK/JOHN sud",,  45.398082, -75.855820,,,0,,2
1016,,"BROOK/METCALFE nord",,  45.398072, -75.857162,,,0,,2
1019,,"EARDLEY/ÉDOUARD-GAGNON sud",,  45.403020, -75.857467,,,0,,2
1020,,"RAOUL-ROY/d'AIGUILLON est",,  45.399950, -75.858711,,,0,,2
1021,,"EARDLEY/FRONT nord",,  45.405155, -75.860898,,,0,,2
1022,,"RAOUL-ROY/ARTHUR-CROTEAU ouest",,  45.399949, -75.858851,,,0,,2
1023,,"EARDLEY/FRONT sud",,  45.404797, -75.860535,,,0,,2
1024,,"ARTHUR-CROTEAU/XAVIER nord",,  45.400531, -75.860534,,,0,,2
1025,,"EARDLEY/RILEY est",,  45.406576, -75.863360,,,0,place_CED,2
1026,,"BEAULAC/ARTHUR-CROTEAU sud",,  45.400316, -75.861629,,,0,,2
1027,,"EARDLEY/RILEY ouest",,  45.406395, -75.863485,,,0,place_CED,2
1030,,"BEAULAC/du KAYAK nord",,  45.401964, -75.866165,,,0,,2
1031,,"BEAULAC/du CATAMARAN nord",,  45.403739, -75.869604,,,0,,2
1034,,"EARDLEY/ÉDOUARD-GAGNON est",,  45.403111, -75.857315,,,0,,2
1037,,"BEAULAC/du KAYAK sud",,  45.401696, -75.865982,,,0,,2
1038,,"FRONT/HARVEY est",,  45.397370, -75.854762,,,0,,2
1039,,"BEAULAC/du CATAMARAN sud",,  45.403647, -75.869807,,,0,,2
1040,,"FRONT/HARVEY ouest",,  45.397189, -75.854900,,,0,,2
1042,,"FRONT/CATHCART est",,  45.395751, -75.854623,,,0,,2
1043,,"LATTION/BEAULAC nord",,  45.408013, -75.870947,,,0,,2
1044,,"FRONT/CHARLES ouest",,  45.395750, -75.854725,,,0,,2
1045,,"LATTION/BEAULAC sud",,  45.407907, -75.870741,,,0,,2
1046,,"PRINCIPALE/TIBERIUS nord",,  45.394413, -75.852890,,,0,,2
1047,,"LATTION/BEAULAC nord",,  45.405516, -75.872545,,,0,,2
1048,,"PRINCIPALE/TIBERIUS sud",,  45.394326, -75.852519,,,0,,2
1049,,"LATTION/BEAULAC sud",,  45.405337, -75.872440,,,0,,2
1050,,"PRINCIPALE/JUBILEE nord",,  45.394610, -75.850670,,,0,,2
1051,,"VANIER/du PLATEAU est",,  45.421102, -75.809629,,,0,,2
1052,,"PRINCIPALE/JUBILEE sud",,  45.394521, -75.850477,,,0,,2
1053,,"VANIER/du PLATEAU ouest",,  45.421100, -75.809834,,,0,,2
1054,,"PRINCIPALE/PARKER nord",,  45.394720, -75.847925,,,0,,2
1056,,"PRINCIPALE/BANCROFT sud",,  45.394727, -75.847031,,,0,,2
1058,,"VANIER/ATTIKAMEKS ouest",,  45.413188, -75.808609,,,0,,2
1059,,"VANIER/ATTIKAMEKS est",,  45.413639, -75.808436,,,0,,2
1061,,"VANIER/ANTOINE-BOUCHER ouest",,  45.426643, -75.815282,,,0,,0
1064,,"PRINCIPALE/BROAD nord",,  45.395117, -75.843000,,,0,,2
1066,,"PRINCIPALE/BROAD sud",,  45.395030, -75.842564,,,0,,2
1068,,"FRANK ROBINSON/PRINCIPALE est",,  45.394683, -75.840783,,,0,,2
1072,,"WILFRID-LAVIGNE/PRINCIPALE ouest",,  45.395960, -75.838502,,,0,,2
1073,,"WILFRID-LAVIGNE/PRINCIPALE ouest",,  45.397763, -75.838120,,,0,,2
1074,,"WILFRID-LAVIGNE/PRINCIPALE est",,  45.396413, -75.838113,,,0,,2
1075,,"WILFRID-LAVIGNE/LEGUERRIER est",,  45.398308, -75.837489,,,0,,2
1076,,"WILFRID-LAVIGNE/JOHN-EGAN ouest",,  45.399207, -75.837656,,,0,,2
1077,,"GALERIES AYLMER arrivée",,  45.399032, -75.835711,,,0,,2
1078,,"WILFRID-LAVIGNE/JOHN-EGAN est",,  45.400109, -75.837299,,,0,,2
1079,,"GALERIES AYLMER départ",,  45.398684, -75.835272,,,0,,2
1080,,"WILFRID-LAVIGNE/de la CORSE ouest",,  45.401905, -75.837951,,,0,,2
1082,,"WILFRID-LAVIGNE/de la CORSE est",,  45.401791, -75.837490,,,0,,2
1084,,"WILFRID-LAVIGNE/CHARLES-DEVLIN est",,  45.404066, -75.837894,,,0,,2
1085,,"VANIER/ANTOINE-BOUCHER est",,  45.427540, -75.815666,,,0,,0
1086,,"WILFRID-LAVIGNE/CHARLES-DEVLIN ouest",,  45.404153, -75.838266,,,0,,2
1088,,"WILFRID-LAVIGNE/des RÉDEMPTORISTES ouest",,  45.406581, -75.838595,,,0,,2
1090,,"WILFRID-LAVIGNE/des RÉDEMPTORISTES est",,  45.406224, -75.838156,,,0,,2
1092,,"WILFRID-LAVIGNE/de BRUYNE est",,  45.409281, -75.838597,,,0,,2
1093,,"WILFRID-LAVIGNE/JEAN-DELISLE ouest",,  45.409818, -75.839039,,,0,,2
1096,,"PARC-O-BUS ALLUMETTIÈRES arrêt d'arrivée",,  45.407409, -75.866350,,,0,place_CED,1
1097,,"PARC-O-BUS ALLUMETTIÈRES",,  45.407338, -75.866221,,,0,place_CED,1
1098,,"des ALLUMETTIÈRES/WILFRID-LAVIGNE nord",,  45.410535, -75.839536,,,0,,2
1100,,"des ALLUMETTIÈRES/des CHAMPIGNONS nord",,  45.410329, -75.843021,,,0,,2
1102,,"BROAD/WRIGHT ouest",,  45.408756, -75.848825,,,0,,2
1103,,"BROAD/WRIGHT est",,  45.408847, -75.848622,,,0,,2
1106,,"BROAD/LOUIS-SAINT-LAURENT ouest",,  45.406972, -75.846524,,,0,,2
1107,,"BROAD/LOUIS-SAINT-LAURENT est",,  45.407064, -75.846385,,,0,,2
1108,,"FRONT/des ALLUMETTIERES est",,  45.410318, -75.856529,,,0,,2
1109,,"FRONT/des ALLUMETTIÈRES ouest",,  45.410316, -75.856861,,,0,,2
1110,,"FRONT/du VERGER est",,  45.412749, -75.856425,,,0,,2
1111,,"du VERGER/FRONT nord",,  45.412926, -75.856850,,,0,,2
1112,,"du VERGER/du CARIBOU sud",,  45.412226, -75.854245,,,0,,2
1113,,"du VERGER/de l'ÉLAN nord",,  45.412405, -75.854299,,,0,,2
1114,,"du VERGER/KLOCK sud",,  45.412428, -75.851308,,,0,,2
1115,,"du VERGER/KLOCK nord",,  45.412609, -75.851158,,,0,,2
1116,,"des ALLUMETIÈRES/FRONT nord",,  45.409414, -75.857065,,,0,,2
1117,,"FRONT/des ALLUMETTIÈRES ouest",,  45.408428, -75.856590,,,0,,2
1119,,"des ALLUMETTIÈRES/FRONT sud",,  45.409151, -75.856115,,,0,,2
1120,,"BAGOT/BROAD nord",,  45.402841, -75.845236,,,0,,2
1121,,"BAGOT/PARKER nord",,  45.402731, -75.847930,,,0,,2
1124,,"BROAD/ANNA est",,  45.403205, -75.844743,,,0,,2
1128,,"BROAD/LOUIS-SAINT-LAURENT est",,  45.405634, -75.844971,,,0,,2
1129,,"BROAD/LOUIS-SAINT-LAURENT ouest",,  45.406081, -75.845361,,,0,,2
1131,,"BAGOT/BROAD sud",,  45.402656, -75.845936,,,0,,2
1138,,"BAGOT/PARKER sud",,  45.402642, -75.847903,,,0,,2
1140,,"CORMIER/BAGOT ouest",,  45.402528, -75.851032,,,0,,2
1141,,"CORMIER/CHARTIER ouest",,  45.403959, -75.852293,,,0,,2
1142,,"CORMIER/BAGOT est",,  45.402709, -75.850984,,,0,,2
1144,,"CHARTIER/CORMIER nord",,  45.403963, -75.851782,,,0,,2
1145,,"CHARTIER/BOURGEAU sud",,  45.403874, -75.851627,,,0,,2
1147,,"CORMIER/CHARTIER est",,  45.404140, -75.852245,,,0,,2
1150,,"BOURGEAU/LOUIS-SAINT-LAURENT est",,  45.406111, -75.853450,,,0,,2
1152,,"BOURGEAU/LOUIS-SAINT-LAURENT ouest",,  45.405841, -75.853471,,,0,,2
1156,,"FRONT/de la TERRASSE-EARDLEY ouest",,  45.405920, -75.854916,,,0,,2
1158,,"FRANK-ROBINSON/du PATRIMOINE ouest",,  45.394772, -75.840976,,,0,,2
1162,,"WYCHWOOD/SMILEY est",,  45.392872, -75.842315,,,0,,2
1164,,"WYCHWOOD/LORD-AYLMER est",,  45.390263, -75.842071,,,0,,2
1166,,"WYCHWOOD/LORD-AYLMER ouest",,  45.392960, -75.842520,,,0,,2
1168,,"WYCHWOOD/LAKE ouest",,  45.389008, -75.841325,,,0,,2
1170,,"WYCHWOOD/LORD-AYLMER ouest",,  45.390262, -75.842263,,,0,,2
1171,,"Parc-O-Bus RIVERMEAD arrivée RIVERMEAD",,  45.404041, -75.793515,,,0,place_TPIR,2
1173,,"LAKE/GLENHOLM est",,  45.388560, -75.841075,,,0,,2
1174,,"LAKE/ELLESMERE ouest",,  45.386670, -75.841035,,,0,,2
1176,,"LAKE/ELLESMERE est",,  45.386671, -75.840868,,,0,,2
1178,,"LAKE/ARBUTUS est",,  45.385233, -75.840668,,,0,,2
1180,,"ARBUTUS/SARATOGA sud",,  45.384967, -75.840064,,,0,,2
1182,,"ARBUTUS/BUTTERNUT nord",,  45.385065, -75.839018,,,0,,2
1184,,"ARBUTUS/OAKWOOD sud",,  45.385073, -75.837945,,,0,,2
1185,,"PINE/ARBUTUS ouest",,  45.385442, -75.836622,,,0,,2
1186,,"PINE/ARBUTUS est",,  45.385443, -75.836469,,,0,,2
1188,,"de LUCERNE/PINE sud",,  45.387515, -75.836359,,,0,,2
1190,,"de LUCERNE/PINE nord",,  45.387695, -75.836247,,,0,,2
1191,,"de LUCERNE/RIESLING nord",,  45.386212, -75.829787,,,0,,2
1192,,"de LUCERNE/EASTERN sud",,  45.385512, -75.827107,,,0,,2
1193,,"de LUCERNE/RIESLING sud",,  45.386207, -75.830566,,,0,,2
1194,,"de LUCERNE/EASTERN nord",,  45.385644, -75.827084,,,0,,2
1201,,"ELIZABETH/BELMONT nord",,  45.392950, -75.831648,,,0,,2
1203,,"ELIZABETH/BELMONT sud",,  45.392864, -75.831110,,,0,,2
1204,,"BELMONT/GLENWOOD ouest",,  45.389910, -75.828729,,,0,,2
1205,,"GLENWOOD/MONTGOMERY sud",,  45.390920, -75.826074,,,0,,2
1206,,"BELMONT/GLENWOOD est",,  45.390090, -75.828745,,,0,,2
1207,,"GLENWOOD/MONTGOMERY nord",,  45.391007, -75.826433,,,0,,2
1208,,"BELMONT/WINSTON-CHURCHILL est",,  45.391071, -75.829998,,,0,,2
1210,,"BELMONT/WINSTON-CHURCHILL ouest",,  45.391429, -75.830387,,,0,,2
1220,,"chemin d'AYLMER/de la COLLINE sud",,  45.395556, -75.832172,,,0,,2
1222,,"chemin d'AYLMER/de la COLLINE nord",,  45.395730, -75.833056,,,0,,2
1224,,"chemin d'AYLMER/du BORDEAUX sud",,  45.395445, -75.835083,,,0,,2
1226,,"PRINCIPALE/du BORDEAUX nord",,  45.395617, -75.836210,,,0,,2
1230,,"chemin d'AYLMER/SAMUEL-EDEY nord",,  45.396129, -75.827734,,,0,,2
1232,,"chemin d'AYLMER/SAMUEL-EDEY sud",,  45.395951, -75.827425,,,0,,2
1234,,"chemin d'AYLMER/FRASER nord",,  45.396328, -75.825029,,,0,,2
1236,,"FRASER/CHRISTOPHE-COLOMB ouest",,  45.395883, -75.824409,,,0,,2
1238,,"FRASER/chemin d'AYLMER est",,  45.395704, -75.824215,,,0,,2
1240,,"FRASER/ELGIN ouest",,  45.393904, -75.824137,,,0,,2
1242,,"FRASER/HOLMES est",,  45.393636, -75.823929,,,0,,2
1244,,"FRASER/NELSON-MORIN ouest",,  45.392196, -75.823870,,,0,,2
1246,,"FRASER/GLENWOOD est",,  45.391658, -75.823619,,,0,,2
1247,,"FRASER/RIOPELLE est",,  45.387431, -75.823009,,,0,,2
1248,,"FRASER/CHAPEL ouest",,  45.390128, -75.823584,,,0,,2
1250,,"FRASER/JOE-ARCHAMBAULT est",,  45.389679, -75.823361,,,0,,2
1251,,"de LUCERNE/VICTOR-BEAUDRY nord",,  45.385258, -75.812221,,,0,,2
1252,,"FRASER/RIOPELLE ouest",,  45.387880, -75.823245,,,0,,2
1253,,"de LUCERNE/VICTOR-BEAUDRY sud",,  45.384984, -75.812805,,,0,,2
1254,,"FRASER/LOUIS est",,  45.385813, -75.822755,,,0,,2
1258,,"de LUCERNE/FRASER nord",,  45.384739, -75.821884,,,0,,2
1259,,"FRASER/LOUIS ouest",,  45.386351, -75.823018,,,0,,2
1261,,"de LUCERNE/FRASER",,  45.384646, -75.822266,,,0,,2
1265,,"CÔTÉ/LUCERNE ouest",,  45.385190, -75.809231,,,0,,1
1265A,,"CÔTÉ/LUCERNE ouest",,  45.385190, -75.809231,,,0,,0
1268,,"de LUCERNE/GARDEN nord",,  45.385725, -75.809839,,,0,,2
1280,,"chemin d'AYLMER/GARDEN sud",,  45.398637, -75.810573,,,0,,2
1282,,"chemin d'AYLMER/GARDEN nord",,  45.398495, -75.811568,,,0,,2
1284,,"chemin d'AYLMER/MAPLE GROVE sud",,  45.397580, -75.813612,,,0,,2
1286,,"chemin d'AYLMER/MAPLE GROVE nord",,  45.397853, -75.813258,,,0,,2
1288,,"chemin d'AYLMER/GRIMES sud",,  45.396645, -75.818568,,,0,,2
1290,,"chemin d'AYLMER/GRIMES nord",,  45.396827, -75.818303,,,0,,2
1292,,"chemin d'AYLMER/FOLEY sud",,  45.396345, -75.822652,,,0,,2
1293,,"MC CONNELL/des MANOIRS nord",,  45.413461, -75.795309,,,0,,2
1294,,"chemin d'AYLMER/FOLEY nord",,  45.396619, -75.822081,,,0,,2
1295,,"des MANOIRS/MC CONNELL ouest",,  45.413549, -75.795668,,,0,,2
1296,,"chemin d'AYLMER/FRASER sud",,  45.396246, -75.823916,,,0,,2
1297,,"Chemin d'AYLMER/VANIER nord",,  45.400828, -75.805022,,,0,,1
1301,,"RIVERMEAD/ÉMILE-ZOLA ouest",,  45.411307, -75.794422,,,0,,2
1302,,"RIVERMEAD/ÉMILE-ZOLA ouest",,  45.410859, -75.794211,,,0,,2
1303,,"VANIER/KILROY est",,  45.439038, -75.819002,,,0,,0
1304,,"CÔTÉ/DESCHÊNES ouest",,  45.384021, -75.809010,,,0,,2
1304A,,"CÔTÉ/DESCHÊNES ouest",,  45.384021, -75.809010,,,0,,2
1305,,"CÔTÉ/DESCHÊNES est",,  45.383842, -75.808867,,,0,,2
1306,,"RIVERMEAD/JEAN-DE LA FONTAINE ouest",,  45.407170, -75.793878,,,0,,2
1307,,"RIVERMEAD/JEAN-DE LA FONTAINE ouest",,  45.407082, -75.793673,,,0,,2
1308,,"CÔTÉ/LAMOUREUX ouest",,  45.381503, -75.808642,,,0,,2
1308A,,"CÔTÉ/LAMOUREUX ouest",,  45.381503, -75.808642,,,0,,2
1309,,"LAMOUREUX/CÔTÉ nord",,  45.381326, -75.808244,,,0,,2
1310,,"LAMOUREUX/VANIER sud",,  45.381261, -75.804743,,,0,,2
1310A,,"LAMOUREUX/VANIER sud",,  45.381261, -75.804743,,,0,,2
1311,,"LAMOUREUX/VANIER nord",,  45.381349, -75.805051,,,0,,2
1312,,"VANIER/MADAIRE est",,  45.383601, -75.804751,,,0,,2
1312A,,"VANIER/MADAIRE est",,  45.383601, -75.804751,,,0,,2
1313,,"VANIER/MADAIRE ouest",,  45.383690, -75.804905,,,0,,2
1316,,"VANIER/de LUCERNE est",,  45.386209, -75.805031,,,0,,2
1316A,,"VANIER/de LUCERNE est",,  45.386209, -75.805031,,,0,,2
1317,,"VANIER/de LUCERNE ouest",,  45.386118, -75.805157,,,0,,2
1318,,"JEAN-DE LA FONTAINE/ALEXANDRE-DUMAS ouest",,  45.411998, -75.798572,,,0,,2
1319,,"JEAN-DE LA FONTAINE/ALEXANDRE-DUMAS ouest",,  45.413079, -75.798524,,,0,,2
1320,,"de LUCERNE/ROYALE nord",,  45.414950, -75.761793,,,0,,2
1321,,"de LUCERNE/ROYALE sud",,  45.414951, -75.761666,,,0,,2
1323,,"VANIER/KILROY ouest",,  45.439036, -75.819168,,,0,,0
1324,,"VANIER/MOORE ouest",,  45.388997, -75.805389,,,0,,2
1326,,"VANIER/de LUCERNE ouest",,  45.387830, -75.805041,,,0,,2
1328,,"VANIER/CRESCENT ouest",,  45.390618, -75.805361,,,0,,2
1330,,"VANIER/CRESCENT ouest",,  45.391246, -75.805613,,,0,,2
1332,,"VANIER/des VÉTÉRANS est",,  45.393765, -75.805802,,,0,,2
1333,,"MC CONNELL/MORLEY-WALTERS sud",,  45.412678, -75.804346,,,0,,2
1334,,"VANIER/des VÉTÉRANS ouest",,  45.393586, -75.805634,,,0,,2
1335,,"MC CONNELL/des MANOIRS sud",,  45.413188, -75.795816,,,0,,2
1336,,"VANIER/CRESCENT ouest",,  45.396644, -75.806060,,,0,,2
1338,,"VANIER/CRESCENT est",,  45.396375, -75.805878,,,0,,2
1340,,"VANIER/chemin d'AYLMER ouest",,  45.399522, -75.806382,,,0,,2
1342,,"VANIER/chemin d'AYLMER est",,  45.399253, -75.806200,,,0,,2
1344,,"chemin d'AYLMER/LAKEVIEW sud",,  45.399234, -75.808831,,,0,,2
1346,,"chemin d'AYLMER/LAKEVIEW nord",,  45.399414, -75.808962,,,0,,2
1347,,"MC CONNELL/MORLEY-WALTERS nord",,  45.412773, -75.803644,,,0,,2
1348,,"chemin d'AYLMER/MORLEY-WALTERS sud",,  45.401255, -75.803123,,,0,,2
1350,,"chemin d'AYLMER/MORLEY-WALTERS nord",,  45.401617, -75.802873,,,0,,2
1352,,"chemin d'AYLMER/CASTELBEAU nord",,  45.402168, -75.801271,,,0,,2
1353,,"chemin d'AYLMER/VANIER sud",,  45.400336, -75.805857,,,0,,2
1354,,"chemin d'AYLMER/VANIER nord",,  45.399965, -75.807385,,,0,,2
1355,,"chemin d'AYLMER/CASTELBEAU sud",,  45.402081, -75.800924,,,0,,2
1356,,"chemin d'AYLMER/CASTELBEAU sud",,  45.403457, -75.797149,,,0,,2
1357,,"chemin d'AYLMER/CASTELBEAU nord",,  45.403546, -75.797265,,,0,,2
1358,,"chemin d'AYLMER/RIVERMEAD sud",,  45.404468, -75.794122,,,0,place_TPIR,2
1361,,"chemin d'AYLMER/de HONFLEUR nord",,  45.406209, -75.789801,,,0,,2
1362,,"chemin d'AYLMER/ATHOLL DOUNE nord",,  45.407219, -75.786928,,,0,,2
1363,,"chemin d'AYLMER/de HONFLEUR sud",,  45.405845, -75.790384,,,0,,2
1364,,"chemin d'AYLMER/ATHOLL DOUNE sud",,  45.407131, -75.786620,,,0,,2
1365,,"d'HOCHELAGA/ATHOLL DOUNE nord",,  45.427997, -75.789006,,,0,,2
1366,,"chemin d'AYLMER/ALLEN sud",,  45.408506, -75.782984,,,0,,2
1367,,"MC CONNELL/CASTELBEAU sud",,  45.412875, -75.801920,,,0,,2
1368,,"chemin d'AYLMER/ALLEN nord",,  45.408320, -75.783786,,,0,,2
1369,,"MC CONNELL/CASTELBEAU nord",,  45.412968, -75.801462,,,0,,2
1374,,"chemin d'AYLMER/CHAUDIÈRE sud",,  45.410618, -75.776828,,,0,,2
1376,,"chemin d'AYLMER/CHAUDIÈRE nord",,  45.410521, -75.777836,,,0,,2
1377,,"PARC-O-BUS RIVERMEAD ouest",,  45.403753, -75.793486,,,0,place_TPIR,2
1378,,"chemin d'AYLMER/PONT CHAMPLAIN sud",,  45.413553, -75.768778,,,0,,2
1379,,"MUSÉE DE LA NATURE",,  45.441990, -75.816551,,,0,,2
1380,,"chemin d'AYLMER/PONT CHAMPLAIN nord",,  45.413734, -75.768640,,,0,,2
1381,,"chemin d'AYLMER/PONT CHAMPLAIN nord",,  45.414927, -75.765282,,,0,,2
1382,,"chemin d'AYLMER/ROYALE nord",,  45.416294, -75.762706,,,0,,2
1383,,"chemin d'AYLMER/PONT CHAMPLAIN sud",,  45.414839, -75.765000,,,0,,2
1384,,"chemin d'AYLMER/ROYALE sud",,  45.416024, -75.762792,,,0,,2
1386,,"chemin d'AYLMER/PONT CHAMPLAIN sud",,  45.411718, -75.773878,,,0,,2
1387,,"PERRY/PINK est",,  45.437512, -75.880095,,,0,,2
1388,,"chemin d'AYLMER/PONT CHAMPLAIN nord",,  45.411990, -75.773664,,,0,,2
1389,,"chemin d'AYLMER/PONT CHAMPLAIN nord",,  45.437562, -75.880582,,,0,,2
1390,,"BAILLIE/PERRY nord",,  45.467140, -75.885340,,,0,,2
1391,,"de la MONTAGNE/VANIER est",,  45.463948, -75.822164,,,0,,2
1392,,"de la MONTAGNE/VANIER ouest",,  45.463681, -75.821738,,,0,,2
1393,,"MC CONNELL/JEAN-DE LA FONTAINE sud",,  45.413077, -75.798843,,,0,,2
1394,,"MC CONNELL/JEAN-DE LA FONTAINE sud",,  45.413169, -75.798538,,,0,,2
1395,,"PINK/AUGUSTE-MONDOUX sud",,  45.441845, -75.816601,,,0,,2
1396,,"JEAN-DE LA FONTAINE/PIERRE-DE RONSARD ouest",,  45.408843, -75.799256,,,0,,2
1397,,"JEAN-DE LA FONTAINE/PIERRE-DE RONSARD ouest",,  45.408755, -75.799000,,,0,,2
1398,,"chemin d'AYLMER/d'AMOUR nord",,  45.406758, -75.788403,,,0,,2
1399,,"chemin d'AYLMER/d'AMOUR sud",,  45.406395, -75.788820,,,0,,2
1400,,"JEAN-DE LA FONTAINE/ÉMILE-ZOLA sud",,  45.407068, -75.795615,,,0,,2
1401,,"JEAN-DE LA FONTAINE/ÉMILE-ZOLA sud",,  45.407156, -75.795961,,,0,,2
1402,,"PINK/du CONSERVATOIRE nord",,  45.442335, -75.811007,,,0,,2
1403,,"PINK/du CONSERVATOIRE sud",,  45.442245, -75.811031,,,0,,2
1404,,"de la COLLINE/chemin d'AYLMER est",,  45.396189, -75.831824,,,0,,2
1405,,"PINK/du PRADO nord",,  45.442741, -75.804517,,,0,,2
1406,,"de la COLLINE/chemin d'AYLMER ouest",,  45.396188, -75.831990,,,0,,2
1407,,"PINK/du PRADO sud",,  45.442562, -75.804387,,,0,,2
1408,,"de la COLLINE/des ARTISANS est",,  45.399335, -75.832394,,,0,,2
1409,,"PINK/de VERNON nord",,  45.443038, -75.800711,,,0,,1
1410,,"de la COLLINE/des ARTISANS ouest",,  45.399244, -75.832546,,,0,,2
1411,,"PINK/de VERNON sud",,  45.442955, -75.799636,,,0,,1
1412,,"de la COLLINE/du VALLON est",,  45.400871, -75.831598,,,0,,2
1416,,"du VALLON/de la COLLINE ouest",,  45.401144, -75.831270,,,0,,2
1420,,"du VALLON/des DRAVEURS ouest",,  45.403931, -75.831669,,,0,,2
1423,,"des ALLUMETTIÈRES/des CHAMPIGNONS sud",,  45.409968, -75.843131,,,0,,2
1424,,"WILFRID-LAVIGNE/MAURICE-DUPLESSIS nord",,  45.419855, -75.845119,,,0,,2
1425,,"MAURICE-DUPLESSIS/WILFRID-LAVIGNE sud",,  45.419941, -75.845631,,,0,,2
1426,,"WILFRID-LAVIGNE/JEAN-LESAGE ouest",,  45.418055, -75.845066,,,0,,2
1427,,"WILFRID-LAVIGNE/JEAN-LESAGE est",,  45.418147, -75.844838,,,0,,2
1428,,"WILFRID-LAVIGNE/du BOIS FRANC est",,  45.416720, -75.843014,,,0,,2
1429,,"WILFRID-LAVIGNE/des PINACÉES est",,  45.415742, -75.841325,,,0,,2
1430,,"WILFRID-LAVIGNE/du BOIS FRANC ouest",,  45.416448, -75.843215,,,0,,2
1431,,"WILFRID-LAVIGNE/des PINACÉES ouest",,  45.415586, -75.841732,,,0,,2
1432,,"WILFRID-LAVIGNE/des PINACÉES est",,  45.414584, -75.839685,,,0,,2
1433,,"WILFRID-LAVIGNE/du MAQUIS ouest",,  45.411526, -75.839295,,,0,,2
1434,,"WILFRID-LAVIGNE/du VERGER ouest",,  45.413415, -75.839578,,,0,,2
1435,,"WILFRID-LAVIGNE/du MAQUIS est",,  45.412608, -75.839094,,,0,,2
1436,,"WILFRID-LAVIGNE/des ALLUMETTIÈRES est",,  45.411170, -75.838855,,,0,,2
1437,,"MAURICE-DUPLESSIS/KLOCK sud",,  45.419550, -75.849856,,,0,,2
1438,,"WILFRID-LAVIGNE/des ALLUMETTIÈRES ouest",,  45.410672, -75.839269,,,0,,2
1439,,"MAURICE-DUPLESSIS/JEAN-LESAGE nord",,  45.419734, -75.849207,,,0,,2
1441,,"KLOCK/de la CLÉMATITE est",,  45.415856, -75.850312,,,0,,2
1442,,"KLOCK/de la CLÉMATITE ouest",,  45.415764, -75.850464,,,0,,2
1444,,"SAMUEL-EDEY/des PAYSANS ouest",,  45.409618, -75.829465,,,0,,2
1446,,"SAMUEL-EDEY/des PAYSANS est",,  45.409259, -75.829281,,,0,,2
1448,,"du CAVEAU/SAMUEL-EDEY nord",,  45.406738, -75.829359,,,0,,2
1450,,"du CAVEAU/SAMUEL-EDEY sud",,  45.406559, -75.829331,,,0,,2
1451,,"MC CONNELL/WILFRID-LAVIGNE sud",,  45.410363, -75.838383,,,0,,2
1452,,"du VALLON/du GRAND-CALUMET est",,  45.405191, -75.831662,,,0,,2
1454,,"du VALLON/du CAVEAU ouest",,  45.405818, -75.832144,,,0,,2
1456,,"du VALLON/des PIONNIERS est",,  45.403340, -75.831328,,,0,,2
1458,,"Parc-O-Bus RIVERMEAD arrivée Chemin d'AYLMER nord",,  45.404703, -75.794099,,,0,place_TPIR,2
1459,,"du CONSERVATOIRE/du LOUVRE ouest",,  45.441526, -75.810804,,,0,,2
1460,,"du CONSERVATOIRE/du LOUVRE est",,  45.441528, -75.810625,,,0,,2
1461,,"du LOUVRE/du GRAND-PALAIS sud",,  45.441096, -75.808100,,,0,,2
1462,,"du LOUVRE/du GRAND-PALAIS sud",,  45.441276, -75.808102,,,0,,2
1463,,"de l'ACROPOLE/du PRADO sud",,  45.440315, -75.803907,,,0,,2
1464,,"de l'ACROPOLE/d'ANDROMÈDE nord",,  45.440314, -75.804073,,,0,,2
1465,,"d'ANDROMÈDE/du PRADO sud",,  45.440607, -75.800766,,,0,,2
1466,,"d'ANDROMÈDE/du PRADO",,  45.440600, -75.801750,,,0,,2
1467,,"d'ANDROMÈDE/de la NOVA sud",,  45.442149, -75.799100,,,0,,2
1468,,"d'ANDROMÈDE/de la NOVA nord",,  45.442335, -75.798297,,,0,,2
1470,,"KLOCK/des ALLUMETTIÈRES ouest",,  45.409489, -75.849526,,,0,,2
1471,,"KLOCK/des ALLUMETTIÈRES est",,  45.410371, -75.849540,,,0,,2
1472,,"KLOCK/du VERGER ouest",,  45.412257, -75.850015,,,0,,2
1473,,"KLOCK/du VERGER est",,  45.412438, -75.849864,,,0,,2
1485,,"SAMUEL-EDEY/MCCONNELL est",,  45.411153, -75.829514,,,0,,2
1486,,"SAMUEL-EDEY/MCCONNELL ouest",,  45.411151, -75.829698,,,0,,2
1500,,"VICTOR-BEAUDRY/NORVAL-JONES ouest",,  45.386693, -75.813072,,,0,,2
1501,,"VICTOR-BEAUDRY/NORVAL-JONES ouest",,  45.386874, -75.812909,,,0,,2
1502,,"VICTOR-BEAUDRY/GUILFORD-BOOTH ouest",,  45.390640, -75.814969,,,0,,2
1503,,"VICTOR-BEAUDRY/GUILFORD-BOOTH ouest",,  45.390464, -75.814378,,,0,,2
1504,,"VICTOR-BEAUDRY/JAMES-BYRNE ouest",,  45.394043, -75.817381,,,0,,2
1505,,"VICTOR-BEAUDRY/JAMES-BYRNE ouest",,  45.394489, -75.817886,,,0,,2
1506,,"VICTOR-BEAUDRY/ARTHUR-QUESNEL ouest",,  45.396466, -75.818438,,,0,,2
1507,,"VICTOR-BEAUDRY/ARTHUR-QUESNEL ouest",,  45.396467, -75.818208,,,0,,2
1520,,"du BORDEAUX/du MALBEC ouest",,  45.394632, -75.835493,,,0,,2
1521,,"du BORDEAUX/du MALBEC ouest",,  45.394633, -75.835276,,,0,,2
2000,,"ALEXANDRE-TACHÉ/SAINT-RAYMOND nord",,  45.418390, -75.758938,,,0,,2
2002,,"ALEXANDRE-TACHÉ/SAINT-RAYMOND sud",,  45.417664, -75.759785,,,0,,2
2004,,"ALEXANDRE-TACHÉ/SAINT-RAYMOND sud",,  45.420133, -75.753964,,,0,,2
2006,,"ALEXANDRE-TACHÉ/SAINT-DOMINIQUE sud",,  45.419954, -75.753770,,,0,,2
2008,,"CEGEP GABRIELLE-ROY/arrivée",,  45.459306, -75.767443,,,0,,1
2008A,,"CEGEP GABRIELLE-ROY/arrivée",,  45.459306, -75.767443,,,0,,0
2010,,"CEGEP GABRIELLE-ROY",,  45.458793, -75.767423,,,0,,1
2010A,,"CEGEP GABRIELLE-ROY",,  45.458793, -75.767423,,,0,,0
2011,,"CEGEP GABRIELLE-ROY",,  45.458841, -75.767002,,,0,,2
2021,,"CASINO DU LAC-LEAMY ",,  45.446692, -75.725379,,,0,,2
2022,,"ALEXANDRE-TACHÉ/BOUDRIA nord",,  45.421239, -75.748585,,,0,,2
2023,,"ALEXANDRE-TACHÉ/SAINTE-THÉRÈSE nord",,  45.420681, -75.751313,,,0,,2
2024,,"ALEXANDRE-TACHÉ/BOUDRIA sud",,  45.421161, -75.748136,,,0,,2
2025,,"ALEXANDRE-TACHÉ/SAINTE-THÉRÈSE sud",,  45.420511, -75.751234,,,0,,2
2026,,"ALEXANDRE-TACHÉ/BÉGIN sud",,  45.421535, -75.746058,,,0,,2
2028,,"ALEXANDRE-TACHÉ/BÉGIN nord",,  45.421716, -75.745881,,,0,,2
2044,,"ALEXANDRE-TACHÉ/BÉGIN sud",,  45.422093, -75.743330,,,0,,2
2046,,"ALEXANDRE-TACHÉ/HORMIDAS-DUPUIS nord",,  45.422275, -75.743000,,,0,,2
2058,,"ALEXANDRE-TACHÉ/de la COOPÉRATION nord",,  45.422840, -75.739160,,,0,,2
2060,,"ALEXANDRE-TACHÉ/de la COOPÉRATION sud",,  45.422753, -75.738647,,,0,,2
2064,,"ALEXANDRE-TACHÉ/SAINT-JOSEPH sud",,  45.423421, -75.732725,,,0,,1
2065,,"ALEXANDRE-TACHÉ/SAINT-JOSEPH nord",,  45.423414, -75.733939,,,0,,2
2066,,"SAINT-JOSEPH/CHÂTELAIN est",,  45.424137, -75.733425,,,0,,1
2068,,"SAINT-JOSEPH/CHÂTELAIN ouest",,  45.424586, -75.733622,,,0,,1
2070,,"SAINT-JOSEPH/DUQUESNE est",,  45.425848, -75.733383,,,0,,1
2072,,"SAINT-JOSEPH/DUQUESNE ouest",,  45.426387, -75.733505,,,0,,1
2074,,"SAINT-JOSEPH/BIENVILLE est",,  45.427108, -75.733348,,,0,,1
2078,,"SAINT-JOSEPH/SAINT-JEAN-BOSCO ouest",,  45.428547, -75.733456,,,0,,1
2080,,"SAINT-JOSEPH/de LORIMIER est",,  45.429268, -75.733350,,,0,,1
2082,,"SAINT-JOSEPH/de LORIMIER ouest",,  45.430078, -75.733361,,,0,,1
2084,,"SAINT-JOSEPH/MONTCALM est",,  45.430889, -75.733256,,,0,,1
2086,,"SAINT-JOSEPH/des ALLUMETTIÈRES ouest",,  45.433049, -75.733259,,,0,,1
2088,,"SAINT-JOSEPH/MONTCALM est",,  45.433050, -75.733093,,,0,,1
2092,,"SAINT-JOSEPH/AMHERST est",,  45.434311, -75.733045,,,0,,1
2094,,"SAINT-JOSEPH/AMHERST ouest",,  45.434850, -75.733193,,,0,,1
2096,,"SAINT-JOSEPH/MONSEIGNEUR-BEAUDOIN est",,  45.436022, -75.732965,,,0,,1
2098,,"SAINT-JOSEPH/MONSEIGNEUR-BEAUDOIN ouest",,  45.435840, -75.733154,,,0,,1
2099,,"des GRIVES/de l'ATMOSPHÈRE est",,  45.438280, -75.785876,,,0,,2
2100,,"SAINT-JOSEPH/DUMAS est",,  45.437282, -75.732905,,,0,,1
2101,,"des GRIVES/de l'ARC-EN-CIEL ouest",,  45.440977, -75.786348,,,0,,2
2102,,"SAINT-JOSEPH/DUMAS ouest",,  45.437497, -75.733086,,,0,,1
2103,,"des GRIVES/de l'ARC-EN-CIELest",,  45.441071, -75.785838,,,0,,2
2104,,"SAINT-JOSEPH/NICOLET est",,  45.438993, -75.732799,,,0,,1
2106,,"SAINT-JOSEPH/JEANNE-d'ARC ouest",,  45.438857, -75.733027,,,0,,1
2108,,"SAINT-JOSEPH/MONTCLAIR est",,  45.441334, -75.732650,,,0,,1
2110,,"SAINT-JOSEPH/CARON ouest",,  45.442683, -75.732885,,,0,,1
2112,,"SAINT-JOSEPH/GAMELIN ouest",,  45.444754, -75.732822,,,0,,1
2113,,"des GRIVES/de l'ARC-EN-CIEL est",,  45.442246, -75.785177,,,0,,2
2114,,"SAINT-JOSEPH/GAMELIN est",,  45.444846, -75.732542,,,0,,1
2115,,"des GRIVES/du COSMOS ouest",,  45.442513, -75.785487,,,0,,2
2116,,"SAINT-JOSEPH/CHARLES-CHURCH ouest",,  45.448435, -75.734302,,,0,,1
2117,,"des GRIVES/de la ROSÉE est",,  45.439445, -75.786634,,,0,,2
2118,,"SAINT-JOSEPH/CHARLES-CHURCH est",,  45.448973, -75.734590,,,0,,1
2119,,"des GRIVES/de la ROSÉE ouest",,  45.439353, -75.786978,,,0,,2
2120,,"SAINT-JOSEPH/RENÉ-MARENGÈRE est",,  45.450223, -75.736154,,,0,,1
2121,,"CASINO DU LAC LEAMY",,  45.446418, -75.725964,,,0,,2
2122,,"SAINT-JOSEPH/RENÉ-MARENGÈRE est",,  45.449776, -75.735765,,,0,,1
2124,,"SAINT-JOSEPH/CURÉ-ROBERT ouest",,  45.451472, -75.737961,,,0,,1
2125,,"des GRIVES/de l'ATMOSPHERE ouest",,  45.437562, -75.785598,,,0,,2
2126,,"SAINT-JOSEPH/CURÉ-ROBERT est",,  45.451563, -75.737796,,,0,,1
2128,,"SAINT-JOSEPH/VALIN ouest",,  45.452902, -75.739540,,,0,,1
2130,,"SAINT-JOSEPH/VALIN est",,  45.453172, -75.739556,,,0,,1
2132,,"SAINT-JOSEPH/CHARRON ouest",,  45.454782, -75.740997,,,0,,1
2134,,"SAINT-JOSEPH/CHARRON est",,  45.455142, -75.741117,,,0,,1
2135,,"du PLATEAU/des GRIVES nord",,  45.435496, -75.779842,,,0,,2
2137,,"du PLATEAU/du SATELLITE nord",,  45.436097, -75.776078,,,0,,2
2138,,"SAINT-JOSEPH/MEUNIER ouest",,  45.457563, -75.742542,,,0,,2
2139,,"du PLATEAU/du SATELLITE sud",,  45.435826, -75.776138,,,0,,2
2140,,"SAINT-JOSEPH/MEUNIER est",,  45.458286, -75.742079,,,0,,1
2141,,"SAINT-JOSEPH/ISABELLE ouest",,  45.459278, -75.741759,,,0,,0
2142,,"SAINT-JOSEPH/JEAN-PROULX est",,  45.464244, -75.739407,,,0,,1
2143,,"SAINT-JOSEPH/JEAN-PROULX est",,  45.465960, -75.738559,,,0,,1
2144,,"SAINT-JOSEPH/JEAN-PROULX ouest",,  45.464964, -75.739390,,,0,,1
2146,,"SAINT-JOSEPH/JEAN-PROULX ouest",,  45.467672, -75.738223,,,0,,1
2147,,"SAINT-JOSEPH/JEAN-PROULX est",,  45.469204, -75.737911,,,0,,1
2148,,"SAINT-JOSEPH/JEAN-PROULX est",,  45.467764, -75.737918,,,0,,1
2149,,"SAINT-JOSEPH/JEAN-PROULX ouest",,  45.469562, -75.738286,,,0,,1
2151,,"TERMINUS Parc-o-bus FREEMAN",,  45.473377, -75.741317,,,0,place_HP,1
2153,,"TERMINUS FREEMAN",,  45.473540, -75.741115,,,0,place_HP,1
2154,,"SAINT-JOSEPH/JUNEAU est",,  45.475386, -75.742469,,,0,,2
2155,,"Freeman/St-Joseph - temps d'attente",,  45.473124, -75.741455,,,0,place_HP,2
2156,,"SAINT-JOSEPH/JUNEAU ouest",,  45.475384, -75.742751,,,0,,2
2161,,"FREEMAN/AUDET nord",,  45.472972, -75.741325,,,0,place_HP,2
2162,,"FREEMAN/AUDET nord",,  45.472571, -75.746155,,,0,,2
2164,,"FREEMAN/du TALUS sud",,  45.472489, -75.744990,,,0,,2
2165,,"des HAUTES-PLAINES/FREEMAN sud",,  45.471415, -75.757769,,,0,,2
2166,,"FREEMAN/du DÔME sud",,  45.472193, -75.748990,,,0,,2
2167,,"FREEMAN/du DÔME nord",,  45.472285, -75.748672,,,0,,2
2168,,"FREEMAN/du DÔME nord",,  45.471991, -75.752212,,,0,,2
2169,,"des HAUTES-PLAINES/de la CITADELLE nord",,  45.471593, -75.758040,,,0,,2
2170,,"FREEMAN/ALPHONSE-LUSIGNAN sud",,  45.471905, -75.751596,,,0,,2
2171,,"FREEMAN/du PAYSAGE nord",,  45.471526, -75.754559,,,0,,2
2172,,"des HAUTES-PLAINES/du PARCOURS nord",,  45.471879, -75.761666,,,0,,2
2173,,"des HAUTES-PLAINES/FREEMAN sud",,  45.471228, -75.754632,,,0,,2
2174,,"des HAUTES-PLAINES/du PARCOURS sud",,  45.471657, -75.761905,,,0,,2
2175,,"des HAUTES-PLAINES/du TERROIR nord",,  45.474907, -75.773860,,,0,,2
2176,,"des HAUTES-PLAINES/du VAL-PERCHÉ nord",,  45.473439, -75.764692,,,0,,2
2177,,"des HAUTES-PLAINES/du CONTREFORT nord",,  45.474410, -75.767558,,,0,,2
2178,,"des HAUTES-PLAINES/du VAL-PERCHÉ sud",,  45.472900, -75.764429,,,0,,2
2179,,"des HAUTES-PLAINES/de la FONDRIÈRE sud",,  45.474054, -75.766939,,,0,,2
2180,,"des HAUTES-PLAINES/de la SABLIÈRE nord",,  45.474835, -75.771159,,,0,,2
2181,,"de la CITÉ-DES-JEUNES/du PLEIN-AIR ouest",,  45.471531, -75.780645,,,0,,2
2182,,"des HAUTES-PLAINES/de la FALAISE sud",,  45.474651, -75.771847,,,0,,2
2183,,"de la CITÉ-DES-JEUNES/du PLEIN-AIR est",,  45.471622, -75.780429,,,0,,2
2184,,"des HAUTES-PLAINES/du TERROIR sud",,  45.474728, -75.773665,,,0,,2
2185,,"de la CITÉ-DES-JEUNES/du PLEIN-AIR ouest",,  45.469741, -75.779124,,,0,,2
2186,,"de la CITÉ-DES-JEUNES/RIEL ouest",,  45.465276, -75.773881,,,0,,2
2187,,"de la CITÉ-DES-JEUNES/TALBOT ouest",,  45.463315, -75.771028,,,0,,1
2187A,,"de la CITÉ-DES-JEUNES/TALBOT ouest",,  45.463315, -75.771028,,,0,,2
2188,,"de la CITÉ-DES-JEUNES/TALBOT est",,  45.462960, -75.770306,,,0,place_PMTB,1
2189,,"de la CITÉ-DES-JEUNES/du PLEIN-AIR est",,  45.470101, -75.779141,,,0,,2
2190,,"de la CITÉ-DES-JEUNES/du MONT-BLEU est",,  45.460906, -75.767771,,,0,,1
2191,,"de la CITÉ-DES-JEUNES/de l'AVIRON est",,  45.467062, -75.775927,,,0,,2
2192,,"de la CITÉ-DES-JEUNES/TALBOT ouest",,  45.462333, -75.769735,,,0,place_PMTB,1
2192A,,"de la CITÉ-DES-JEUNES/TALBOT ouest",,  45.462333, -75.769735,,,0,place_PMTB,2
2193,,"de la CITÉ-DES-JEUNES/de l'AVIRON ouest",,  45.468309, -75.777901,,,0,,2
2194,,"de la CITÉ-DES-JEUNES/du MONT-BLEU ouest",,  45.460815, -75.768026,,,0,,1
2194A,,"de la CITÉ-DES-JEUNES/du MONT-BLEU ouest",,  45.460815, -75.768026,,,0,,2
2195,,"de la CITÉ-DES-JEUNES/de l'AVIRON est",,  45.468400, -75.777672,,,0,,2
2196,,"de l'ATMOSPHÈRE/des GRIVES nord",,  45.437738, -75.786252,,,0,,2
2197,,"de la CITÉ-DES-JEUNES/de l'AVIRON ouest",,  45.466792, -75.775936,,,0,,2
2198,,"de la CITÉ-DES-JEUNES/des ÉTUDIANTS est",,  45.457353, -75.766073,,,0,,2
2199,,"de la GRAVITÉ/du SOLSTICE est",,  45.443634, -75.779582,,,0,,2
2200,,"de la CITÉ-DES-JEUNES/PERRAS ouest",,  45.456695, -75.764875,,,0,,2
2201,,"de la GRAVITÉ/du SOLSTICE ouest",,  45.443633, -75.779761,,,0,,2
2204,,"de la CITÉ-DES-JEUNES/PERRAS ouest",,  45.456076, -75.763191,,,0,,2
2206,,"de la CITÉ-DES-JEUNES/des ÉGLANTIERS ouest",,  45.454210, -75.759623,,,0,,2
2207,,"de la GRAVITÉ/de la GALAXIE est",,  45.442011, -75.779931,,,0,,2
2208,,"de la CITÉ-DES-JEUNES/THÉRIEN est",,  45.454212, -75.759265,,,0,,2
2209,,"de la GRAVITÉ/de la GALAXIE ouest",,  45.441649, -75.780348,,,0,,2
2210,,"CENTRE ASTICOU",,  45.450505, -75.761850,,,0,,2
2210A,,"CENTRE ASTICOU",,  45.450505, -75.761850,,,0,,2
2211,,"de l'ATMOSPHÈRE/de la GRAVITÉ nord",,  45.440299, -75.780253,,,0,,2
2212,,"de la CITÉ-DES-JEUNES/ASTICOU est",,  45.451253, -75.757653,,,0,,2
2213,,"de l'ATMOSPHÈRE/de la GRAVITÉ sud",,  45.440123, -75.779726,,,0,,2
2214,,"de la CITÉ-DES-JEUNES/BÉDARD ouest",,  45.450357, -75.756963,,,0,,2
2215,,"de la CITÉ-DES-JEUNES/SAINT-RAYMOND est",,  45.446705, -75.751134,,,0,,2
2216,,"de la CITÉ-DES-JEUNES/BÉDARD est",,  45.448488, -75.753830,,,0,,2
2217,,"de l'ATMOSPHÈRE/de la COMÈTE nord",,  45.440056, -75.776286,,,0,,2
2218,,"de la CITÉ-DES-JEUNES/BÉDARD ouest",,  45.448306, -75.753994,,,0,,2
2219,,"de l'ATMOSPHÈRE/de l'ÉCLIPSE sud",,  45.439876, -75.776245,,,0,,2
2220,,"de l'ATMOSPHÈRE/de la SAPINIÈRE nord",,  45.439439, -75.774423,,,0,,2
2222,,"de la CITÉ-DES-JEUNES/RIEL est",,  45.464654, -75.772709,,,0,,2
2224,,"RIEL/de la CITÉ-DES-JEUNES est",,  45.465281, -75.773050,,,0,,1
2225,,"de l'ATMOSPHÈRE/de l'ASTROLABE ouest",,  45.437735, -75.773428,,,0,,2
2226,,"RIEL/du RAVIN-BLEU est",,  45.465563, -75.771352,,,0,,1
2228,,"RIEL/du RAVIN-BLEU ouest",,  45.465294, -75.771234,,,0,,1
2231,,"de l'ATMOSPHÈRE/de la SAPINIÈRE sud",,  45.439348, -75.774499,,,0,,2
2233,,"du PLATEAU/de l'ATMOSPHÈRE sud",,  45.436424, -75.771659,,,0,,2
2234,,"RIEL/TALBOT est",,  45.464325, -75.768087,,,0,,1
2235,,"du PLATEAU/de l'ATMOSPHÈRE nord",,  45.436391, -75.772476,,,0,,2
2236,,"RIEL/TALBOT ouest",,  45.464233, -75.768303,,,0,,1
2237,,"du PLATEAU/des CÈDRES sud",,  45.436677, -75.770204,,,0,,2
2238,,"RIEL/MARCOUX est",,  45.463984, -75.765165,,,0,,1
2239,,"du PLATEAU/des CÈDRES nord",,  45.436946, -75.770323,,,0,,2
2240,,"RIEL/MARCOUX ouest",,  45.463810, -75.764383,,,0,,1
2241,,"d'EUROPE/d'ANDROMÈDE est",,  45.442086, -75.795263,,,0,,2
2242,,"RIEL/de SAINT-BRIEUC est",,  45.464188, -75.761650,,,0,,1
2243,,"d'EUROPE/d'ANDROMÈDE ouest",,  45.441815, -75.795426,,,0,,2
2244,,"RIEL/ALIE ouest",,  45.464105, -75.760549,,,0,,1
2245,,"d'EUROPE/de GANYMÈDE est",,  45.439565, -75.795368,,,0,,2
2246,,"RIEL/de l'ESCALIER est",,  45.463236, -75.755894,,,0,,1
2247,,"d'EUROPE/de GANYMÈDE ouest",,  45.439924, -75.795437,,,0,,2
2248,,"RIEL/de l'ESCALIER ouest",,  45.463323, -75.756305,,,0,,1
2251,,"de l'ATMOSPHÈRE/du PRINTEMPS nord",,  45.435726, -75.790840,,,0,,2
2253,,"de l'ATMOSPHÈRE/du PRINTEMPS sud",,  45.435546, -75.790824,,,0,,2
2254,,"RIEL/du MONT-BLEU est",,  45.461267, -75.754244,,,0,,1
2255,,"de l'ATMOSPHÈRE/du TROPIQUE nord",,  45.435051, -75.794453,,,0,,2
2256,,"RIEL/du MONT-BLEU ouest",,  45.461175, -75.754511,,,0,,1
2257,,"de l'ATMOSPHÈRE/du TROPIQUE sud",,  45.435255, -75.793774,,,0,,2
2258,,"RIEL/CHOUINARD est",,  45.459119, -75.752386,,,0,,1
2259,,"des GRIVES/du PLATEAU est",,  45.434043, -75.779028,,,0,,2
2260,,"RIEL/CHOUINARD ouest",,  45.458490, -75.752109,,,0,,1
2261,,"des GRIVES/des ALLUMETTIÈRES ouest",,  45.433915, -75.779295,,,0,,2
2262,,"RIEL/CHOUINARD est",,  45.457779, -75.750820,,,0,,1
2264,,"RIEL/BÉDARD ouest",,  45.457240, -75.750609,,,0,,1
2265,,"BÉDARD/THÉRIEN ouest",,  45.455701, -75.751880,,,0,,2
2266,,"RIEL/BÉDARD est",,  45.456173, -75.748548,,,0,,1
2267,,"BÉDARD/THÉRIEN est",,  45.455162, -75.751758,,,0,,2
2268,,"RIEL/ISABELLE ouest",,  45.455885, -75.748621,,,0,,1
2269,,"de l'ATMOSPHÈRE/du FIRMAMENT sud",,  45.438196, -75.785044,,,0,,2
2270,,"RIEL/ISABELLE est",,  45.455375, -75.746785,,,0,,1
2271,,"du PLATEAU/SAINT-RAYMOND nord",,  45.436247, -75.767130,,,0,,2
2272,,"RIEL/ISABELLE ouest",,  45.455017, -75.746435,,,0,,1
2273,,"du PLATEAU/SAINT-RAYMOND sud",,  45.435892, -75.766409,,,0,,2
2274,,"ISABELLE/SAINT-ONGE ouest",,  45.453132, -75.745707,,,0,,1
2275,,"des GRIVES/du SATELLITE est",,  45.436322, -75.782678,,,0,,2
2276,,"ISABELLE/SAINT-ONGE est",,  45.452863, -75.745461,,,0,,1
2278,,"ISABELLE/de la GUADELOUPE est",,  45.451064, -75.745219,,,0,,1
2280,,"ISABELLE/de la GUADELOUPE ouest",,  45.450253, -75.745349,,,0,,1
2281,,"de l'ATMOSPHÈRE/de l'ASTROLABE est",,  45.437736, -75.773224,,,0,,2
2282,,"ISABELLE/FRÉCHETTE est",,  45.447467, -75.744724,,,0,,1
2283,,"des GRIVES/du SATELLITE ouest",,  45.436593, -75.782567,,,0,,2
2284,,"ISABELLE/FRÉCHETTE ouest",,  45.447646, -75.744970,,,0,,1
2285,,"SAINT-RAYMOND/LIONEL-ÉMOND sud",,  45.446268, -75.749184,,,0,,2
2286,,"SAINT-RAYMOND/ISABELLE sud",,  45.446470, -75.745811,,,0,,1
2287,,"SAINT-RAYMOND/LIONEL-ÉMOND nord",,  45.446538, -75.749098,,,0,,2
2288,,"SAINT-RAYMOND/CORBEIL nord",,  45.446737, -75.746211,,,0,,1
2289,,"de l'ATMOSPHÈRE/du FIRMAMENT nord",,  45.439375, -75.783718,,,0,,2
2290,,"CORBEIL/SAINT-RAYMOND ouest",,  45.447264, -75.748315,,,0,,2
2291,,"de l'ATMOSPHÈRE/du FIRMAMENT sud",,  45.439287, -75.783473,,,0,,2
2292,,"CORBEIL/BRIGHAM est",,  45.447711, -75.748769,,,0,,2
2293,,"des GRIVES/du PLATEAU est",,  45.435703, -75.781110,,,0,,1
2294,,"CORBEIL/FRÉCHETTE est",,  45.449409, -75.750645,,,0,,2
2296,,"CORBEIL/FRÉCHETTE ouest",,  45.449497, -75.750902,,,0,,2
2301,,"CORBEIL/DOUCET ouest",,  45.452378, -75.750787,,,0,,2
2302,,"CORBEIL/BRADY est",,  45.452740, -75.750536,,,0,,2
2303,,"THÉRIEN/BÉDARD nord",,  45.454534, -75.751404,,,0,,2
2304,,"THÉRIEN/CORBEIL sud",,  45.454354, -75.751427,,,0,,2
2308,,"THÉRIEN/FROMENT sud",,  45.454247, -75.754048,,,0,,2
2310,,"THÉRIEN/BOULT nord",,  45.454334, -75.754560,,,0,,2
2312,,"THÉRIEN/d'ORSONNENS sud",,  45.453989, -75.757702,,,0,,2
2314,,"THÉRIEN/d'ORSONNENS nord",,  45.454132, -75.757781,,,0,,2
2316,,"du MONT-BLEU/de la CITÉ-DES-JEUNES nord",,  45.460825, -75.766542,,,0,,1
2318,,"du MONT-BLEU/de la CITÉ-DES-JEUNES sud",,  45.460644, -75.766668,,,0,,1
2320,,"du MONT-BLEU/MARCOUX nord",,  45.461022, -75.764013,,,0,,1
2322,,"du MONT-BLEU/MARCOUX sud",,  45.460842, -75.763908,,,0,,1
2324,,"du MONT-BLEU/des GROSEILLIERS sud",,  45.460946, -75.761837,,,0,,1
2326,,"du MONT-BLEU/des MAGNOLIAS nord",,  45.461224, -75.760664,,,0,,1
2328,,"du MONT-BLEU/des MAGNOLIAS sud",,  45.461050, -75.759766,,,0,,1
2330,,"du MONT-BLEU/JOLICOEUR nord",,  45.461897, -75.751489,,,0,,1
2332,,"du MONT-BLEU/JOLICOEUR sud",,  45.461341, -75.756572,,,0,,1
2334,,"du MONT-BLEU/RIEL nord",,  45.461719, -75.753904,,,0,,1
2336,,"du MONT-BLEU/RIEL sud",,  45.461449, -75.753837,,,0,,1
2338,,"du MONT-BLEU/PÈRE-BÉLAND nord",,  45.461825, -75.751424,,,0,,1
2340,,"du MONT-BLEU/PÈRE-BÉLAND sud",,  45.461650, -75.750654,,,0,,1
2342,,"du MONT-BLEU/FORTIN nord",,  45.462022, -75.748817,,,0,,1
2346,,"LUCIEN-BRAULT/CHARLES-ALBANEL sud",,  45.462554, -75.750155,,,0,,1
2347,,"CHARLES-ALBANEL/LE BRETON ouest",,  45.462907, -75.751221,,,0,,1
2348,,"CHARLES-ALBANEL/LUCIEN-BRAULT est",,  45.463086, -75.751364,,,0,,1
2349,,"CHARLES-ALBANEL/JUMONVILLE est",,  45.464349, -75.750959,,,0,,1
2350,,"CHARLES-ALBANEL/JUMONVILLE ouest",,  45.464797, -75.751169,,,0,,1
2351,,"DANIEL-JOHNSON/JUMONVILLE sud",,  45.465080, -75.749280,,,0,,1
2352,,"GEORGES-BILODEAU/LUCIEN-BRAULT est",,  45.462565, -75.748390,,,0,,1
2352A,,"GEORGES-BILODEAU/LUCIEN-BRAULT est",,  45.462565, -75.748390,,,0,,2
2357,,"DANIEL-JOHNSON/JUMONVILLE est",,  45.465084, -75.748589,,,0,,1
2358,,"DANIEL-JOHNSON/LUCIEN-BRAULT ouest",,  45.463559, -75.747827,,,0,,1
2360,,"DANIEL-JOHNSON/RADISSON est",,  45.463381, -75.747492,,,0,,1
2364,,"PHILIAS-FORTIN/du MONT-BLEU est",,  45.461575, -75.748351,,,0,,1
2366,,"PHILIAS-FORTIN/du MONT-BLEU ouest",,  45.461394, -75.748528,,,0,,1
2368,,"JOLICOEUR/ISABELLE sud",,  45.459878, -75.746346,,,0,,1
2370,,"JOLICOEUR/CHOUINARD nord",,  45.460146, -75.746759,,,0,,1
2376,,"ISABELLE/WILFRID-LATOUR sud",,  45.459983, -75.744122,,,0,,1
2378,,"ISABELLE/WILFRID-LATOUR nord",,  45.460160, -75.744585,,,0,,1
2380,,"ISABELLE/RICHARD nord",,  45.459905, -75.742292,,,0,,1
2382,,"ISABELLE/RICHARD sud",,  45.459726, -75.742098,,,0,,1
2383,,"MUTCHMORE/SAINT-JOSEPH nord",,  45.459731, -75.741253,,,0,,2
2384,,"MUTCHMORE/MEUNIER est",,  45.458301, -75.739789,,,0,,2
2385,,"MUTCHMORE/SAINT-JOSEPH sud",,  45.459399, -75.741108,,,0,,2
2386,,"MUTCHMORE/MEUNIER ouest",,  45.458209, -75.739980,,,0,,2
2388,,"MUTCHMORE/LESAGE est",,  45.455072, -75.738046,,,0,,2
2390,,"MUTCHMORE/LESAGE ouest",,  45.454622, -75.737976,,,0,,2
2392,,"MUTCHMORE/LOUIS-HÉBERT ouest",,  45.453187, -75.737152,,,0,,2
2394,,"MUTCHMORE/LOUIS-HÉBERT est",,  45.453010, -75.736715,,,0,,2
2396,,"MUTCHMORE/ABIGAIL est",,  45.451938, -75.735473,,,0,,2
2398,,"MUTCHMORE/ABIGAIL ouest",,  45.451847, -75.735651,,,0,,2
2400,,"MUTCHMORE/RENÉ-MARENGÈRE est",,  45.451133, -75.734695,,,0,,2
2402,,"RENÉ-MARENGÈRE/MUTCHMORE nord",,  45.450589, -75.735302,,,0,,2
2404,,"SAINT-RAYMOND/ROY nord",,  45.447431, -75.736412,,,0,,0
2406,,"SAINT-RAYMOND/JOFFRE sud",,  45.447246, -75.737266,,,0,,0
2408,,"SAINT-RAYMOND/LÉVESQUE sud",,  45.447052, -75.739310,,,0,,0
2410,,"SAINT-RAYMOND/LÉVESQUE nord",,  45.447229, -75.739875,,,0,,0
2412,,"SAINT-RAYMOND/LAROSE nord",,  45.447035, -75.742008,,,0,,0
2414,,"SAINT-RAYMOND/MONTPETIT sud",,  45.446850, -75.742709,,,0,,0
2418,,"LIONEL-ÉMOND/SAINT-RAYMOND est",,  45.446008, -75.747608,,,0,,1
2420,,"LIONEL-ÉMOND/SAINT-RAYMOND ouest",,  45.445377, -75.747817,,,0,,1
2421,,"LIONEL-ÉMOND/GAMELIN ouest",,  45.445367, -75.747881,,,0,,2
2422,,"LIONEL-ÉMOND/SAINT-RAYMOND est",,  45.444839, -75.747439,,,0,,1
2423,,"arrivée Émond et Gamelin terminus",,  45.443499, -75.747230,,,0,,2
2424,,"LIONEL-ÉMOND/GAMELIN est",,  45.443490, -75.747306,,,0,,1
2426,,"LIONEL-ÉMOND/GAMELIN ouest",,  45.443227, -75.747622,,,0,,1
2427,,"LIONEL-ÉMOND/GAMELIN ouest",,  45.443218, -75.747584,,,0,,1
2428,,"GAMELIN/MOUSSETTE nord",,  45.443284, -75.745782,,,0,,2
2430,,"GAMELIN/MOUSSETTE sud",,  45.443247, -75.743096,,,0,,1
2432,,"GAMELIN/LABELLE sud",,  45.443290, -75.742087,,,0,,2
2434,,"GAMELIN/MOUSSETTE nord",,  45.443334, -75.743660,,,0,,1
2436,,"GAMELIN/RICHELIEU nord",,  45.443537, -75.739993,,,0,,1
2438,,"GAMELIN/RICHELIEU sud",,  45.443455, -75.738802,,,0,,1
2440,,"GAMELIN/JOFFRE nord",,  45.443643, -75.737577,,,0,,1
2442,,"GAMELIN/BERRI sud",,  45.443566, -75.735492,,,0,,1
2446,,"GAMELIN/SAINT-JOSEPH nord",,  45.443848, -75.733667,,,0,,1
2448,,"GAMELIN/SAINT-JOSEPH sud",,  45.443671, -75.733243,,,0,,1
2449,,"LABELLE/BOURQUE ouest",,  45.442897, -75.741557,,,0,,2
2450,,"LABELLE/BOURQUE est",,  45.442628, -75.741349,,,0,,2
2452,,"LABELLE/SAINTE-MARIE ouest",,  45.441548, -75.741437,,,0,,2
2454,,"LABELLE/SAINTE-MARIE est",,  45.441279, -75.741178,,,0,,2
2456,,"LABELLE/MONTCLAIR ouest",,  45.440180, -75.741406,,,0,,2
2458,,"SAINT-JOSEPH/FREEMAN terminus",,  45.473068, -75.740430,,,0,place_HP,2
2460,,"LIONEL-ÉMOND/CARON ouest",,  45.441869, -75.747349,,,0,,1
2462,,"LIONEL-ÉMOND/CARON est",,  45.441601, -75.747141,,,0,,1
2464,,"MONTCLAIR/LIONEL-ÉMOND nord",,  45.439983, -75.746685,,,0,,1
2466,,"MONTCLAIR/LIONEL-ÉMOND sud",,  45.439895, -75.746479,,,0,,1
2468,,"MONTCLAIR/MOUSSETTE nord",,  45.440096, -75.743170,,,0,,1
2470,,"MONTCLAIR/MOUSSETTE sud",,  45.439912, -75.743781,,,0,,1
2472,,"MONTCLAIR/LABELLE sud",,  45.440017, -75.741443,,,0,,1
2474,,"MONTCLAIR/LABELLE nord",,  45.440110, -75.740996,,,0,,1
2476,,"MONTCLAIR/FORTIER nord",,  45.440227, -75.736958,,,0,,1
2478,,"MONTCLAIR/SAINT-JOSEPH sud",,  45.440250, -75.733378,,,0,,1
2480,,"MONTCLAIR/SAINT-JOSEPH nord",,  45.440430, -75.733342,,,0,,2
2481,,"MONTCLAIR/FORTIER sud",,  45.440138, -75.736713,,,0,,1
2482,,"LABELLE/MONTCLAIR est",,  45.439930, -75.741084,,,0,,2
2484,,"LABELLE/NICOLET est",,  45.438580, -75.741091,,,0,,2
2486,,"LABELLE/SHERBROOKE ouest",,  45.438398, -75.741294,,,0,,2
2488,,"LABELLE/DUMAS est",,  45.437050, -75.741046,,,0,,2
2494,,"LABELLE/DUROCHER est",,  45.435699, -75.741143,,,0,,2
2496,,"LABELLE/BRODEUR ouest",,  45.436238, -75.741329,,,0,,2
2498,,"LABELLE/AMHERST est",,  45.434258, -75.741252,,,0,,2
2500,,"LABELLE/AMHERST ouest",,  45.434257, -75.741470,,,0,,2
2502,,"des ALLUMETTIÈRES/LABELLE sud",,  45.432193, -75.740484,,,0,,2
2506,,"des ALLUMETTIÈRES/LABELLE nord",,  45.432461, -75.740743,,,0,,2
2508,,"des ALLUMETTIÈRES/DAVIES sud",,  45.432107, -75.736954,,,0,,2
2510,,"des ALLUMETTIÈRES/DAVIES nord",,  45.432394, -75.737150,,,0,,2
2511,,"de la CARRIÈRE/d'EDMONTON est",,  45.455296, -75.731181,,,0,,2
2512,,"des ALLUMETTIÈRES/DEMONTIGNY sud",,  45.432052, -75.734307,,,0,,0
2513,,"de la CARRIÈRE/ADRIEN-ROBERT est",,  45.458881, -75.733542,,,0,,2
2514,,"des ALLUMETTIÈRES/JOGUES nord",,  45.432319, -75.734822,,,0,,0
2515,,"de la CARRIÈRE/d'EDMONTON est",,  45.452606, -75.729573,,,0,,2
2517,,"JEAN-PROULX/NOËL sud",,  45.466957, -75.737370,,,0,,2
2518,,"MONTCLAIR/DUCHARME sud",,  45.440259, -75.731882,,,0,,1
2519,,"JEAN-PROULX/NOËL ouest",,  45.465809, -75.734080,,,0,place_HG,2
2520,,"MONTCLAIR/DUCHARME nord",,  45.440533, -75.731323,,,0,,1
2522,,"JEAN-PROULX/BUTEAU ouest",,  45.463832, -75.733517,,,0,,2
2523,,"MONTCLAIR/Voie ferrée sud",,  45.440369, -75.728712,,,0,,1
2524,,"d'EDMONTON/ADRIEN-ROBERT est",,  45.451321, -75.733432,,,0,,2
2525,,"de la CARRIÈRE/du CASINO est",,  45.450359, -75.728982,,,0,,2
2526,,"ADRIEN-ROBERT/d'EDMONTON sud",,  45.454015, -75.734336,,,0,,2
2527,,"d'EDMONTON/de la CARRIÈRE nord",,  45.451430, -75.730453,,,0,,2
2528,,"ADRIEN-ROBERT/d'EDMONTON est",,  45.456805, -75.734398,,,0,,2
2529,,"JEAN-PROULX/DEVEAULT ouest",,  45.462207, -75.734276,,,0,,2
2530,,"ADRIEN-ROBERT/d'EDMONTON est",,  45.458870, -75.735307,,,0,,2
2531,,"ADRIEN-ROBERT/d'EDMONTON ouest",,  45.458779, -75.735408,,,0,,2
2532,,"JEAN-PROULX/DEVEAULT est",,  45.462299, -75.734009,,,0,,2
2533,,"ADRIEN-ROBERT/d'EDMONTON ouest",,  45.456894, -75.734617,,,0,,2
2534,,"JEAN-PROULX/BUTEAU est",,  45.464014, -75.733238,,,0,,2
2535,,"ADRIEN-ROBERT/d'EDMONTON nord",,  45.454105, -75.734401,,,0,,2
2536,,"JEAN-PROULX/NOËL est",,  45.465989, -75.733980,,,0,place_HG,2
2537,,"d'EDMONTON/ADRIEN-ROBERT ouest",,  45.451140, -75.733557,,,0,,2
2538,,"JEAN-PROULX/NOËL nord",,  45.467050, -75.737013,,,0,,2
2539,,"d'EDMONTON/de la CARRIÈRE sud",,  45.451341, -75.730311,,,0,,2
2540,,"SAINT-RAYMOND/des TREMBLES est",,  45.425215, -75.761331,,,0,,2
2541,,"SAINT-RAYMOND/MARCEL-CHAPUT ouest",,  45.419636, -75.761051,,,0,,2
2542,,"SAINT-RAYMOND/des TREMBLES ouest",,  45.426201, -75.761830,,,0,,2
2543,,"SAINT-RAYMOND/des CAPUCINES est",,  45.420358, -75.760741,,,0,,2
2545,,"SAINT-RAYMOND/des JONQUILLES ouest",,  45.422514, -75.761397,,,0,,2
2546,,"ALEXANDRE-TACHÉ/MILLAR sud",,  45.423817, -75.728576,,,0,,1
2547,,"SAINT-RAYMOND/des JONQUILLES est",,  45.423236, -75.761074,,,0,,2
2548,,"ALEXANDRE-TACHÉ/FRONT nord",,  45.423989, -75.728386,,,0,,1
2549,,"de la CARRIÈRE/du CASINO ouest",,  45.450537, -75.729278,,,0,,2
2550,,"ALEXANDRE-TACHÉ/HANSON nord",,  45.424276, -75.725693,,,0,,1
2551,,"de la CARRIÈRE/ADRIEN-ROBERT ouest",,  45.458700, -75.733770,,,0,,2
2552,,"ALEXANDRE-TACHÉ/HANSON sud",,  45.424067, -75.726138,,,0,,1
2553,,"de la CARRIÈRE/d'EDMONTON ouest",,  45.452784, -75.729895,,,0,,2
2555,,"de la CARRIÈRE/d'EDMONTON ouest",,  45.455204, -75.731487,,,0,,2
2560,,"MONTCALM/WRIGHT est",,  45.426448, -75.723906,,,0,,1
2562,,"MONTCALM/WRIGHT ouest",,  45.426087, -75.723990,,,0,,1
2563,,"WELLINGTON/ST-RÉDEMPTEUR",,  45.425916, -75.722633,,,0,,0
2564,,"MONTCALM/GAGNON ouest",,  45.428329, -75.725336,,,0,,2
2568,,"MONTCALM/GAGNON est",,  45.428378, -75.725104,,,0,,2
2573,,"Station MONTCALM nord",,  45.430381, -75.729297,,,0,,1
2574,,"MONTCALM/HANSON ouest",,  45.430017, -75.728911,,,0,,1
2576,,"MONTCALM/LOIS ouest",,  45.431077, -75.732019,,,0,,1
2578,,"MONTCALM/LOIS est",,  45.431434, -75.732509,,,0,,1
2582,,"de la CARRIÈRE/MONTCLAIR est",,  45.441863, -75.728202,,,0,,1
2583,,"de la CARRIÈRE/MONTCLAIR ouest",,  45.443072, -75.728312,,,0,,1
2584,,"ÉDIFICE LOUIS-SAINT-LAURENT ouest",,  45.445504, -75.728101,,,0,place_ESL,1
2586,,"ÉDIFICE LOUIS-SAINT-LAURENT est",,  45.446052, -75.727802,,,0,place_ESL,1
2588,,"de la CARRIÈRE/des GALERIES est",,  45.444030, -75.727788,,,0,,0
2596,,"MAISONNEUVE/PAPINEAU est",,  45.429306, -75.713153,,,0,,1
2597,,"MAISONNEUVE/des ALLUMETTIÈRES ouest",,  45.432097, -75.713086,,,0,,2
2597A,,"MAISONNEUVE/des ALLUMETTIÈRES ouest",,  45.432097, -75.713086,,,0,,2
2598,,"MAISONNEUVE/PAPINEAU ouest",,  45.429123, -75.713585,,,0,,2
2598A,,"MAISONNEUVE/PAPINEAU ouest",,  45.429123, -75.713585,,,0,,2
2600,,"du PORTAGE/EDDY nord",,  45.425028, -75.720717,,,0,place_TC,2
2601,,"WELLINGTON/ST-RÉDEMPTEUR nord",,  45.426106, -75.721102,,,0,place_TC,0
2602,,"TERRASSES de la CHAUDIÈRE nord",,  45.425030, -75.720398,,,0,place_TC,1
2602A,,"TERRASSES de la CHAUDIÈRE nord",,  45.425030, -75.720398,,,0,place_TC,2
2604,,"TERRASSES de la CHAUDIÈRE sud",,  45.424943, -75.719975,,,0,place_TC,1
2606,,"du PORTAGE/LAVAL sud",,  45.425411, -75.717054,,,0,,1
2607,,"EDDY/du PORTAGE est",,  45.425394, -75.719738,,,0,place_TC,2
2608,,"du PORTAGE/LAVAL nord",,  45.425399, -75.717377,,,0,,2
2610,,"du PORTAGE/AUBRY nord",,  45.427138, -75.714468,,,0,,1
2612,,"de l'HÔTEL-de-VILLE/NOTRE-DAME-de-l'ÎLE nord",,  45.427505, -75.713360,,,0,,1
2613,,"LAVAL/LAURIER est",,  45.425236, -75.716297,,,0,,2
2614,,"de l'HÔTEL-de-VILLE/LAURIER sud",,  45.427157, -75.711298,,,0,,1
2616,,"du PORTAGE/de l'HÔTEL-de-VILLE",,  45.427139, -75.714212,,,0,,1
2618,,"MUSÉE DE L'HISTOIRE",,  45.431128, -75.709724,,,0,,2
2618A,,"MUSÉE DE L'HISTOIRE",,  45.431128, -75.709724,,,0,,2
2620,,"LAURIER/de l'HÔTEL-de-VILLE est",,  45.428244, -75.710263,,,0,,2
2620A,,"LAURIER/de l'HÔTEL-de-VILLE est",,  45.428244, -75.710263,,,0,,1
2621,,"LAURIER/ÉLISABETH-BRUYÈRE ouest",,  45.431396, -75.709932,,,0,,2
2622,,"PLACE d'ACCUEIL arrivée",,  45.426189, -75.713522,,,0,place_PA,1
2622A,,"PLACE d'ACCUEIL arrivée",,  45.426189, -75.713522,,,0,place_PA,2
2623,,"LAURIER/VICTORIA ouest",,  45.428693, -75.710422,,,0,,2
2625,,"EDDY/du PORTAGE ouest",,  45.425393, -75.719929,,,0,place_TC,1
2626,,"EDDY/WRIGHT est",,  45.427283, -75.719928,,,0,,2
2628,,"EDDY/FRONTENAC est",,  45.428633, -75.720035,,,0,,2
2630,,"EDDY/PAPINEAU est",,  45.430432, -75.720249,,,0,,2
2632,,"SAINT-RÉDEMPTEUR/WRIGHT ouest",,  45.427363, -75.721604,,,0,,1
2634,,"SAINT-RÉDEMPTEUR/GAGNON ouest",,  45.428982, -75.721701,,,0,,1
2636,,"SAINT-RÉDEMPTEUR/GARNEAU ouest",,  45.430871, -75.721904,,,0,,1
2638,,"SAINT-RÉDEMPTEUR/SAINT-ÉTIENNE est",,  45.433752, -75.721851,,,0,,1
2640,,"SAINT-RÉDEMPTEUR/MARIE-LE FRANC ouest",,  45.433481, -75.722052,,,0,,1
2642,,"SAINT-RÉDEMPTEUR/SACRÉ-COEUR ouest",,  45.436269, -75.722459,,,0,,2
2643,,"SAINT-RÉDEMPTEUR/ALLARD ouest",,  45.435010, -75.722136,,,0,,2
2644,,"SAINT-RÉDEMPTEUR/SACRÉ-CŒUR est",,  45.435650, -75.722003,,,0,,2
2646,,"SAINT-RÉDEMPTEUR/ADÉLARD-BEAUCHAMP ouest",,  45.438517, -75.722820,,,0,,1
2648,,"SAINT-RÉDEMPTEUR/ADÉLARD-BEAUCHAMP est",,  45.438519, -75.722411,,,0,,1
2650,,"SACRÉ-COEUR/SAINT-HENRI nord",,  45.436910, -75.720626,,,0,,1
2652,,"SACRÉ-COEUR/SAINT-HENRI sud",,  45.436645, -75.719817,,,0,,1
2654,,"SACRÉ-COEUR/MANCE nord",,  45.437112, -75.717215,,,0,,1
2656,,"SACRÉ-COEUR/des AÇORES sud",,  45.436937, -75.716343,,,0,,1
2658,,"SACRÉ-COEUR/des AÇORES nord",,  45.437212, -75.715630,,,0,,1
2660,,"SACRÉ-COEUR/KENT sud",,  45.437134, -75.713686,,,0,,1
2662,,"SACRÉ-COEUR/NOTRE-DAME-de-l'ÎLE nord",,  45.437426, -75.710135,,,0,,1
2668,,"SACRÉ-COEUR/LAURIER sud",,  45.437162, -75.709237,,,0,,1
2668A,,"SACRÉ-COEUR/LAURIER sud",,  45.437162, -75.709237,,,0,,2
2672,,"SACRÉ-COEUR/SAINT-RÉDEMPTEUR sud",,  45.436543, -75.721797,,,0,,1
2674,,"LAURIER/VERDUN est",,  45.434822, -75.709054,,,0,,2
2676,,"LAURIER/VERDUN ouest",,  45.435272, -75.709162,,,0,,1
2680,,"LAURIER/des ALLUMETTIÈRES ouest",,  45.432928, -75.709657,,,0,,1
2680A,,"LAURIER/SAINT-ÉTIENNE ouest",,  45.432928, -75.709657,,,0,,1
2682,,"LAURIER/des ALLUMETTIÈRES est",,  45.432750, -75.709463,,,0,,2
2683,,"DUSSAULT/NOTRE-DAME-de-l'ÎLE nord",,  45.440582, -75.709165,,,0,,2
2684,,"LAURIER/DUSSAULT est",,  45.439959, -75.708096,,,0,,2
2690,,"des ALLUMETTIÈRES/CHAMPLAIN sud",,  45.432194, -75.712026,,,0,,2
2692,,"MAISONNEUVE/des ALLUMETTIÈRES est",,  45.433001, -75.712496,,,0,,1
2693,,"MAISONNEUVE/VERDUN ouest",,  45.434801, -75.712570,,,0,,2
2694,,"des ALLUMETTIÈRES/KENT sud",,  45.432441, -75.715596,,,0,,2
2694A,,"des ALLUMETTIÈRES/KENT sud",,  45.432441, -75.715596,,,0,,2
2695,,"MAISONNEUVE/VERDUN est",,  45.434352, -75.712270,,,0,,1
2702,,"des ALLUMETTIÈRES/SAINT-RÉDEMPTEUR sud",,  45.432133, -75.721626,,,0,,2
2702A,,"des ALLUMETTIÈRES/SAINT-RÉDEMPTEUR sud",,  45.432133, -75.721626,,,0,,2
2704,,"des ALLUMETTIÈRES/SAINT-RÉDEMPTEUR nord",,  45.432496, -75.721273,,,0,,2
2706,,"des ALLUMETTIÈRES/MORIN sud",,  45.432105, -75.726062,,,0,,2
2708,,"PINK/des GRIVES nord",,  45.443642, -75.791449,,,0,,2
2709,,"PINK/des GRIVES sud",,  45.443554, -75.791166,,,0,,2
2711,,"PLACE d'ACCUEIL est",,  45.426243, -75.713600,,,0,place_PA,2
2714,,"FOURNIER/JOANISSE ouest",,  45.445419, -75.713100,,,0,,2
2715,,"FOURNIER/LAMBERT ouest",,  45.443976, -75.713427,,,0,,2
2716,,"FOURNIER/BÉRIAULT est",,  45.446593, -75.712411,,,0,,2
2717,,"FOURNIER/LAMBERT est",,  45.444159, -75.713020,,,0,,2
2718,,"FOURNIER/chemin LAC LEAMY ouest",,  45.454929, -75.703538,,,0,,2
2722,,"PLACE d'ACCUEIL est",,  45.426189, -75.713522,,,0,place_PA,1
2723,,"PLACE d'ACCUEIL ouest",,  45.425942, -75.714146,,,0,place_PA,2
2724,,"PLACE d'ACCUEIL ouest",,  45.425970, -75.714133,,,0,place_PA,2
2724A,,"PLACE d'ACCUEIL ouest",,  45.425970, -75.714133,,,0,place_PA,2
2726,,"FOURNIER/du LAC LEAMY est",,  45.454933, -75.702963,,,0,,2
2727,,"des TREMBLES/MAYBURRY sud",,  45.426373, -75.763085,,,0,,2
2728,,"des TREMBLES/MAYBURRY nord",,  45.426557, -75.762474,,,0,,2
2729,,"des TREMBLES/BOYER nord",,  45.426347, -75.767034,,,0,,2
2730,,"des TREMBLES/MAYBURRY nord",,  45.424986, -75.768563,,,0,,2
2735,,"des TREMBLES/BOYER sud",,  45.426173, -75.766137,,,0,,2
2736,,"des TREMBLES/de la SITELLE sud",,  45.424717, -75.768418,,,0,,2
2741,,"SAINT-RAYMOND/LOUISE-CAMPAGNA est",,  45.430340, -75.762064,,,0,,2
2742,,"SAINT-RAYMOND/LOUISE-CAMPAGNA ouest",,  45.429798, -75.762389,,,0,,2
2743,,"SAINT-RAYMOND/des JONQUILLES est",,  45.426924, -75.761507,,,0,,2
2746,,"de la GALÈNE/du QUARTZ ouest",,  45.477781, -75.787973,,,0,,2
2746A,,"de la GALÈNE/du QUARTZ ouest",,  45.477781, -75.787973,,,0,,2
2749,,"de la GALÈNE/AURORA-LAFLEUR sud",,  45.479285, -75.791705,,,0,,2
2749A,,"de la GALÈNE/AURORA-LAFLEUR sud",,  45.479285, -75.791705,,,0,,0
2750,,"de la GALÈNE/du MICA ouest",,  45.477081, -75.785085,,,0,,2
2750A,,"de la GALÈNE/du MICA ouest",,  45.477081, -75.785085,,,0,,2
2751,,"LOUISE-CAMPAGNA/SAINT-RAYMOND nord",,  45.429599, -75.765289,,,0,,2
2753,,"LOUISE-CAMPAGNA/SAINT-RAYMOND sud",,  45.429512, -75.764878,,,0,,2
2754,,"de la GALÈNE/des MINEURS ouest",,  45.474569, -75.783796,,,0,,2
2754A,,"de la GALÈNE/des MINEURS ouest",,  45.474569, -75.783796,,,0,,2
2755,,"LOUISE-CAMPAGNA/des MIGRATEURS nord",,  45.429126, -75.768619,,,0,,2
2757,,"LOUISE-CAMPAGNA/du BRUANT sud",,  45.428853, -75.769088,,,0,,2
2758,,"de la CITÉ-DES-JEUNES/des HAUTES-PLAINES ouest",,  45.472602, -75.781875,,,0,,2
2759,,"LOUISE-CAMPAGNA/du HUARD nord",,  45.428919, -75.772643,,,0,,2
2760,,"de la CITÉ-DES-JEUNES/des HAUTES-PLAINES est",,  45.472604, -75.781632,,,0,,2
2761,,"LOUISE-CAMPAGNA/du MARTIN-PÊCHEUR sud",,  45.428739, -75.772640,,,0,,2
2762,,"des HAUTES-PLAINES/de la CITÉ-DES-JEUNES sud",,  45.472710, -75.779280,,,0,,2
2763,,"des TREMBLES/des GRIVES ouest",,  45.427196, -75.774524,,,0,,2
2764,,"des HAUTES-PLAINES/de la CITÉ-DES-JEUNES nord",,  45.472524, -75.780198,,,0,,2
2765,,"des TREMBLES/des PERDRIX est",,  45.426836, -75.774609,,,0,,2
2766,,"SAINT-RAYMOND/des FRÊNES ouest",,  45.437601, -75.766624,,,0,,2
2767,,"PINK/de la SAPINIÈRE nord",,  45.445383, -75.773878,,,0,,2
2769,,"PINK/de la SAPINIÈRE sud",,  45.445121, -75.772749,,,0,,2
2770,,"SAINT-RÉDEMPTEUR/des ALLUMETTIÈRES ouest",,  45.431862, -75.721891,,,0,,1
2771,,"des TREMBLES/des PARULINES ouest",,  45.424590, -75.773849,,,0,,2
2772,,"des TREMBLES/des PARULINES est",,  45.424861, -75.773712,,,0,,2
2773,,"des TREMBLES/des PARULINES sud",,  45.423711, -75.770757,,,0,,2
2774,,"des TREMBLES/des PARULINES nord",,  45.423895, -75.770146,,,0,,2
2775,,"LOUISE-CAMPAGNA/SAINT-RAYMOND nord",,  45.430063, -75.763122,,,0,,2
2777,,"MARIE-BURGER/de la GALÈNE est",,  45.479365, -75.793164,,,0,,2
2777A,,"MARIE-BURGER/de la GALÈNE est",,  45.479365, -75.793164,,,0,,2
2778,,"PINK/des GRIVES nord",,  45.444129, -75.786149,,,0,,2
2779,,"PINK/des GRIVES sud",,  45.443951, -75.785916,,,0,,2
2780,,"PINK/de la MONTAGNE nord",,  45.444898, -75.778986,,,0,,2
2781,,"PINK/de la GRAVITÉ sud",,  45.444351, -75.780104,,,0,,2
2782,,"d'EUROPE/de LONDRES ouest",,  45.438204, -75.796935,,,0,,2
2783,,"d'EUROPE/de LONDRES est",,  45.437935, -75.796701,,,0,,2
2784,,"du PLATEAU/d'EUROPE nord",,  45.435140, -75.797377,,,0,,2
2785,,"du PLATEAU/d'EUROPE sud",,  45.434868, -75.797719,,,0,,2
2786,,"d'EUROPE/de LONDRES est",,  45.436750, -75.798896,,,0,,2
2787,,"d'EUROPE/de LONDRES est",,  45.436927, -75.799308,,,0,,2
2788,,"du PLATEAU/de BRUXELLES nord",,  45.433561, -75.791525,,,0,,2
2789,,"du PLATEAU/de BRUXELLES sud",,  45.433287, -75.792084,,,0,,2
2790,,"du PLATEAU/de l'AUTOMNE sud",,  45.433493, -75.788303,,,0,,2
2791,,"du PLATEAU/de l'AUTOMNE sud",,  45.433313, -75.788300,,,0,,2
2792,,"du PLATEAU/du CUMULUS nord",,  45.433882, -75.784140,,,0,,2
2793,,"du PLATEAU/du CUMULUS nord",,  45.433704, -75.783741,,,0,,2
2794,,"du PLATEAU/de l'ATMOSPHÈRE nord",,  45.433718, -75.794839,,,0,,2
2795,,"du PLATEAU/de l'ATMOSPHÈRE sud",,  45.433536, -75.795079,,,0,,2
2796,,"du PLATEAU/des GRIVES sud",,  45.434620, -75.781529,,,0,,1
2797,,"du PLATEAU/d'EUROPE nord",,  45.435932, -75.800035,,,0,,0
2798,,"du PLATEAU/d'EUROPE sud",,  45.435751, -75.800148,,,0,,0
2799,,"du PLATEAU/du PRADO nord",,  45.436277, -75.802162,,,0,,0
2800,,"du PLATEAU/du PRADO sud",,  45.435612, -75.802598,,,0,,0
2801,,"du PLATEAU/de l'AMÉRIQUE-FRANÇAISE est",,  45.434717, -75.805081,,,0,,1
2802,,"du PLATEAU/de l'AMÉRIQUE-FRANÇAISE ouest",,  45.434752, -75.805286,,,0,,1
2803,,"du PLATEAU/du MARIGOT nord",,  45.425809, -75.805849,,,0,,1
2804,,"du PLATEAU/du MARIGOT est",,  45.425812, -75.805491,,,0,,1
2805,,"du PLATEAU/de la BOUSSOLE sud",,  45.422563, -75.806634,,,0,,1
2806,,"du PLATEAU/du MARIGOT nord",,  45.422651, -75.806903,,,0,,1
2817,,"de l'AMÉRIQUE-FRANÇAISE/de l'ART MODERNE nord",,  45.436065, -75.806685,,,0,,1
2818,,"de l'AMÉRIQUE-FRANÇAISE/de l'ART MODERNE dus",,  45.436152, -75.807057,,,0,,1
2819,,"de l'AMÉRIQUE-FRANÇAISE/de l'ART MODERNE sud",,  45.437042, -75.808528,,,0,,1
2820,,"de l'AMÉRIQUE-FRANÇAISE/de l'ART MODERNE nord",,  45.437133, -75.808375,,,0,,1
2821,,"du CONSERVATOIRE/du GLENBOW est",,  45.438925, -75.809577,,,0,,1
2822,,"du CONSERVATOIRE/du GLENBOW ouest",,  45.439193, -75.809798,,,0,,1
2823,,"des GRIVES/des ALIZÉS est",,  45.445212, -75.785691,,,0,,0
2823A,,"des GRIVES/des ALIZÉS est",,  45.445212, -75.785691,,,0,,0
2824,,"des GRIVES/de la VAUDAIRE est",,  45.446990, -75.789015,,,0,,0
2824A,,"des GRIVES/de la VAUDAIRE est",,  45.446990, -75.789015,,,0,,0
2825,,"des GRIVES/du CHINOOK est",,  45.448876, -75.789629,,,0,,0
2825A,,"des GRIVES/du CHINOOK est",,  45.448876, -75.789629,,,0,,0
2826,,"des GRIVES/de la MONTAGNE est",,  45.450318, -75.789407,,,0,,0
2826A,,"des GRIVES/de la MONTAGNE est",,  45.450318, -75.789407,,,0,,0
2827,,"de la MONTAGNE/du CHINOOK sud",,  45.449895, -75.785462,,,0,,0
2827A,,"de la MONTAGNE/du CHINOOK sud",,  45.449895, -75.785462,,,0,,0
2828,,"de la MONTAGNE/de la BRISE sud",,  45.447846, -75.782300,,,0,,0
2828A,,"de la MONTAGNE/de la BRISE sud",,  45.447846, -75.782300,,,0,,0
3000,,"LES PROMENADES nord",,  45.474345, -75.697600,,,0,place_PO,2
3003,,"LES PROMENADES sud",,  45.474306, -75.698214,,,0,place_PO,2
3008,,"de la SAVANE/GRÉBER nord",,  45.473926, -75.702841,,,0,,2
3011,,"des ANCIENS/LAFONTAINE est",,  45.473153, -75.704059,,,0,,1
3012,,"des ANCIENS/de la SAVANE ouest",,  45.473494, -75.704294,,,0,,2
3016,,"de l'ÉRABLIÈRE/PIERRE-PAPIN nord",,  45.472203, -75.706363,,,0,,2
3017,,"ARÉNA BEAUDRY/arrivée",,  45.495107, -75.756257,,,0,,2
3024,,"de l'ÉRABLIÈRE/de l'ABBÉ-GINGUET nord",,  45.471702, -75.710169,,,0,,2
3029,,"LOUIS-RIEL/LOUIS-JOLIETT sud",,  45.468330, -75.709705,,,0,,1
3030,,"de l'ÉRABLIÈRE/LOUIS-RIEL ouest",,  45.469946, -75.711797,,,0,,2
3043,,"LAFRENIÈRE/MOREAU nord",,  45.466515, -75.706330,,,0,,1
3044,,"LAFRENIÈRE/LOUIS-RIEL est",,  45.467922, -75.705823,,,0,,1
3045,,"LOUIS-RIEL/LOUIS-JOLIETT nord",,  45.468476, -75.709387,,,0,,1
3046,,"LAFRENIÈRE/LOUIS-RIEL ouest",,  45.468029, -75.705927,,,0,,2
3047,,"de l'ÉRABLIÈRE/PIERRE-RADISSON est",,  45.469623, -75.711614,,,0,,1
3048,,"de l'ÉRABLIÈRE/de l'ABBÉ-GUINGUET est",,  45.471268, -75.710573,,,0,,1
3049,,"de l'ÉRABLIÈRE/PIERRE-PAPIN sud",,  45.472077, -75.706387,,,0,,1
3050,,"de POINTE-GATINEAU/MOREAU sud",,  45.466389, -75.706226,,,0,,2
3056,,"de POINTE-GATINEAU/COUSINEAU nord",,  45.466726, -75.702687,,,0,,1
3057,,"de POINTE-GATINEAU/COUSINEAU sud",,  45.466600, -75.702775,,,0,,1
3058,,"GRÉBER/LOUIS-RIEL est",,  45.469259, -75.700557,,,0,,2
3060,,"GRÉBER/LOUIS-RIEL ouest",,  45.470265, -75.701055,,,0,,2
3062,,"GRÉBER/LOUIS-RIEL ouest",,  45.468700, -75.700844,,,0,,2
3064,,"GRÉBER/LOUIS-RIEL est",,  45.470474, -75.700725,,,0,,2
3066,,"GRÉBER/de la SAVANE est",,  45.472686, -75.701034,,,0,,2
3068,,"GRÉBER/de la SAVANE ouest",,  45.472414, -75.701350,,,0,,2
3104,,"de la SAVANE/SAINT-JOSAPHAT nord",,  45.474510, -75.692677,,,0,,2
3105,,"de la CITÉ/LAMARCHE ouest",,  45.478913, -75.680524,,,0,,2
3106,,"de la SAVANE/SAINT-JOSAPHAT sud",,  45.474398, -75.691856,,,0,,2
3107,,"de la CITÉ/LAMARCHE est",,  45.479239, -75.680183,,,0,,2
3108,,"de la SAVANE/SAINT-ROSAIRE nord",,  45.474742, -75.688534,,,0,,2
3109,,"de LAUSANNE/d'ALBANEL nord",,  45.477718, -75.684642,,,0,,2
3110,,"de la SAVANE/SAINT-ROSAIRE sud",,  45.474645, -75.688264,,,0,,2
3113,,"de LAUSANNE/d'ALBANEL sud",,  45.477548, -75.684474,,,0,,2
3115,,"de LAUSANNE/de DUCHESNAY nord",,  45.477924, -75.681817,,,0,,2
3117,,"de LAUSANNE/de DUCHESNAY sud",,  45.477743, -75.681994,,,0,,2
3119,,"de LAUSANNE/de la SAVANE ouest",,  45.475829, -75.685925,,,0,,2
3121,,"de LAUSANNE/de la SAVANE est",,  45.476010, -75.685786,,,0,,2
3124,,"de la CITÉ/de la SAVANE est",,  45.476687, -75.677849,,,0,,1
3125,,"de la CITÉ/de LAUSANNE ouest",,  45.476596, -75.678104,,,0,,1
3127,,"de la CITÉ/de la FONTENELLE est",,  45.474082, -75.676999,,,0,,1
3128,,"de POINTE-GATINEAU/SAINT-ROSAIRE nord",,  45.467705, -75.689689,,,0,,2
3129,,"de la CITÉ/de BRISTOL ouest",,  45.474080, -75.677319,,,0,,1
3130,,"de POINTE-GATINEAU/SAINT-ROSAIRE sud",,  45.467527, -75.689444,,,0,,2
3137,,"SAINT-JOSAPHAT/ALINE ouest",,  45.472553, -75.691898,,,0,,1
3138,,"SAINT-JOSAPHAT/ALINE est",,  45.472644, -75.691745,,,0,,1
3139,,"SAINT-JOSAPHAT/MONSEIGNEUR-FORBES est",,  45.470845, -75.691442,,,0,,1
3141,,"SAINT-JOSAPHAT/MONSEIGNEUR-FORBES ouest",,  45.470667, -75.691158,,,0,,1
3143,,"SAINT-JOSAPHAT/SAINT-GEORGES est",,  45.468597, -75.691171,,,0,,1
3144,,"GRÉBER/SAINT-LOUIS est",,  45.462064, -75.699649,,,0,,2
3145,,"SAINT-JOSAPHAT/SAINT-GEORGES ouest",,  45.468868, -75.690944,,,0,,1
3146,,"GRÉBER/SAINT-LOUIS ouest",,  45.462602, -75.700014,,,0,,2
3147,,"GRÉBER/de POINTE-GATINEAU ouest",,  45.464671, -75.700282,,,0,,2
3148,,"GRÉBER/LAFORTUNE est",,  45.463593, -75.699796,,,0,,2
3150,,"GRÉBER/de POINTE-GATINEAU ouest",,  45.469923, -75.701013,,,0,,2
3152,,"GRÉBER/de POINTE-GATINEAU est",,  45.465572, -75.700063,,,0,,2
3154,,"de POINTE-GATINEAU/SAINT-ANTOINE nord",,  45.466925, -75.699683,,,0,,2
3156,,"de POINTE-GATINEAU/SAINT-ANTOINE sud",,  45.466745, -75.699630,,,0,,2
3189,,"de POINTE-GATINEAU/BERTHE nord",,  45.468349, -75.687395,,,0,,2
3190,,"de POINTE-GATINEAU/BERTHE sud",,  45.467989, -75.687493,,,0,,2
3192,,"de POINTE-GATINEAU/FLORIAN-THIBAULT nord",,  45.470020, -75.685061,,,0,,2
3194,,"de POINTE-GATINEAU/FLORIAN-THIBAULT sud",,  45.469894, -75.684944,,,0,,2
3195,,"de POINTE-GATINEAU/JEAN-TALON nord",,  45.470682, -75.684135,,,0,,2
3198,,"de POINTE-GATINEAU/ROBERT-SAVOIE sud",,  45.470802, -75.683676,,,0,,2
3200,,"de la SAVANE/FLORIAN-THIBAULT sud",,  45.474748, -75.686116,,,0,,2
3207,,"de PICARDIE/de PROVENCE sud",,  45.471108, -75.721791,,,0,,0
3209,,"SAINT-ANTOINE/LAFORTUNE ouest",,  45.464767, -75.699158,,,0,,1
3211,,"SAINT-ANTOINE/ONÉSIME est",,  45.464949, -75.698943,,,0,,1
3215,,"SAINT-ANTOINE/AIMÉ est",,  45.462071, -75.698549,,,0,,1
3216,,"de POINTE-GATINEAU/JOLY nord",,  45.471797, -75.681308,,,0,,2
3217,,"SAINT-LOUIS/SAINT-ANTOINE nord",,  45.461528, -75.699054,,,0,,1
3218,,"de POINTE-GATINEAU/JOLY sud",,  45.471721, -75.680527,,,0,,2
3219,,"SAINT-LOUIS/de BRISTOL nord",,  45.472187, -75.677808,,,0,,1
3220,,"SAINT-LOUIS/de la CITÉ sud",,  45.472006, -75.677934,,,0,,1
3226,,"GRÉBER/JACQUES-CARTIER ouest",,  45.458100, -75.700214,,,0,,2
3227,,"de GASCOGNE/de DIJON ouest",,  45.473575, -75.715860,,,0,,0
3228,,"GRÉBER/JACQUES-CARTIER est",,  45.457923, -75.699802,,,0,,2
3229,,"de GASCOGNE/de TOURS est",,  45.473668, -75.715401,,,0,,0
3230,,"GRÉBER/SAINT-LOUIS est",,  45.460174, -75.699689,,,0,,2
3231,,"d'AUVERGNE/de LOURDES",,  45.476282, -75.714833,,,0,,0
3232,,"GRÉBER/PHILÉAS-LEGAULT ouest",,  45.460082, -75.700021,,,0,,2
3233,,"d'AUVERGNE/de SAVOIE est",,  45.476463, -75.714656,,,0,,0
3235,,"d'AUVERGNE/de FOIX sud",,  45.478257, -75.715600,,,0,,0
3236,,"SAINT-LOUIS/GRÉBER sud",,  45.461159, -75.700507,,,0,,2
3237,,"d'AUVERGNE/de FOIX ouest",,  45.478437, -75.715615,,,0,,0
3239,,"SAINT-LOUIS nord",,  45.461225, -75.701391,,,0,,1
3240,,"SAINT-LOUIS/MARENGÈRE sud",,  45.460959, -75.703664,,,0,,2
3244,,"SAINT-LOUIS/JOSEPH-BÉLANGER sud",,  45.460944, -75.706171,,,0,,2
3245,,"SAINT-LOUIS/BLAIS sud",,  45.460738, -75.710364,,,0,,1
3246,,"SAINT-LOUIS/BLAIS nord",,  45.460917, -75.710507,,,0,,1
3247,,"SAINT-LOUIS/MOREAU nord",,  45.461034, -75.706211,,,0,,1
3254,,"SAINT-LOUIS/JACQUES-CARTIER nord",,  45.459001, -75.714640,,,0,,2
3258,,"SAINT-LOUIS/ROBERT ouest",,  45.461124, -75.720525,,,0,,2
3260,,"SAINT-LOUIS/ROBERT est",,  45.461127, -75.720115,,,0,,2
3263,,"SAINT-LOUIS/VENDÉE est",,  45.463447, -75.723228,,,0,,2
3268,,"de TURIN/des FLANDRES sud",,  45.469491, -75.716858,,,0,place_SGAP,0
3269,,"Quai local de la GAPPE départ",,  45.468756, -75.716452,,,0,place_SGAP,1
3271,,"de la GAPPE/OXFORD sud",,  45.462478, -75.719966,,,0,,2
3273,,"de la GAPPE/OXFORD ouest",,  45.462476, -75.720235,,,0,,2
3275,,"de la GAPPE/CARMEN sud",,  45.463839, -75.718295,,,0,,2
3277,,"SAINT-LOUIS/du LOIRET est",,  45.466589, -75.724688,,,0,,0
3279,,"de la GAPPE/CARMEN nord",,  45.464562, -75.717754,,,0,,2
3282,,"des FLANDRES/de PIEDMONT ouest",,  45.470406, -75.718788,,,0,,2
3284,,"des FLANDRES/de GASCOGNE est",,  45.470319, -75.718442,,,0,,2
3285,,"de PICARDIE/de VALENCE nord",,  45.471288, -75.721678,,,0,,2
3286,,"des FLANDRES/de GASCOGNE est",,  45.472377, -75.720259,,,0,,2
3287,,"des FLANDRES/de TOURS ouest",,  45.472223, -75.720449,,,0,,2
3288,,"de PICARDIE/de VALENCE sud",,  45.471312, -75.720795,,,0,,2
3291,,"des FLANDRES/de NANTES ouest",,  45.475703, -75.720992,,,0,,2
3293,,"des FLANDRES/de NANTES est",,  45.475884, -75.720854,,,0,,2
3294,,"SAINT-LOUIS/PICARDIE ouest",,  45.471751, -75.726711,,,0,,0
3295,,"des FLANDRES/d'AUVERGNE ouest",,  45.477140, -75.721522,,,0,,2
3296,,"SAINT-LOUIS/d'AUVERGNE ouest",,  45.474070, -75.728635,,,0,,0
3297,,"des FLANDRES/d'AUVERGNE nord",,  45.477410, -75.721577,,,0,,2
3305,,"SAINT-LOUIS/JACQUES-CARTIER sud",,  45.458821, -75.714612,,,0,,1
3307,,"de TURIN/des FLANDRES est",,  45.469702, -75.716348,,,0,place_SGAP,1
3316,,"d'AUVERGNE/de MONACO est",,  45.478790, -75.716835,,,0,,2
3317,,"de BOURGOGNE/de ROCHEFORT sud",,  45.484274, -75.717813,,,0,,2
3319,,"de BOURGOGNE/d'ALSACE ouest",,  45.482778, -75.716744,,,0,,2
3320,,"de BOURGOGNE/d'ALENCON est",,  45.483112, -75.716646,,,0,,2
3321,,"de BOURGOGNE/de SAINT-ÉLOI ouest",,  45.479334, -75.716215,,,0,,2
3322,,"de BOURGOGNE/d'ANGERS est",,  45.479335, -75.716087,,,0,,2
3323,,"de BOURGOGNE/Av. GATINEAU est",,  45.484455, -75.717725,,,0,,2
3324,,"d'AUVERGNE/de SAINT-ÉLOI ouest",,  45.478859, -75.720073,,,0,,2
3325,,"d'AUVERGNE/de MONACO ouest",,  45.478700, -75.716757,,,0,,2
3326,,"d'AUVERGNE/de SAINT-ÉLOI est",,  45.479044, -75.719358,,,0,,2
3351,,"GRÉBER/de VARENNES ouest",,  45.493635, -75.703431,,,0,,0
3352,,"Av. GATINEAU/SAINT-LOUIS sud",,  45.475734, -75.730358,,,0,,2
3353,,"Av. GATINEAU/la VÉRENDRYE ouest",,  45.488319, -75.718696,,,0,,2
3354,,"Av. GATINEAU/DUCERRE nord",,  45.476097, -75.729915,,,0,,2
3356,,"Av. GATINEAU/de BOULOGNE sud",,  45.477553, -75.727387,,,0,,2
3364,,"Av. GATINEAU/de BOULOGNE nord",,  45.477370, -75.727794,,,0,,2
3368,,"Av. GATINEAU/de TOURAINE nord",,  45.480187, -75.723698,,,0,,2
3369,,"Av. GATINEAU/de TOURAINE sud",,  45.480188, -75.723532,,,0,,2
3370,,"du BARRY/la VÉRENDRYE est",,  45.487460, -75.712107,,,0,,2
3370A,,"du BARRY/la VÉRENDRYE est",,  45.487460, -75.712107,,,0,,2
3376,,"Av. GATINEAU/de TOURAINE nord",,  45.482095, -75.720830,,,0,,2
3378,,"Av. GATINEAU/de BERNAY sud",,  45.482640, -75.720018,,,0,,2
3381,,"Av. GATINEAU/la VÉRENDRYE est",,  45.488501, -75.718455,,,0,,2
3382,,"Av. GATINEAU/de ROCHEFORT est",,  45.485628, -75.717216,,,0,,2
3384,,"Av. GATINEAU/de ROCHEFORT nord",,  45.486170, -75.716992,,,0,,2
3385,,"Av. GATINEAU/de ROCHEFORT nord",,  45.484180, -75.718541,,,0,,2
3386,,"Av. GATINEAU/de ROCHEFORT sud",,  45.484271, -75.718312,,,0,,2
3387,,"PROVENCE/de NANTES ouest",,  45.473801, -75.722912,,,0,,0
3388,,"PROVENCE/de NANTES est",,  45.473892, -75.722773,,,0,,0
3389,,"de BOULOGNE/d'AUVERGNE sud",,  45.475965, -75.725102,,,0,,0
3390,,"de BOULOGNE/d'AUVERGNE nord",,  45.476110, -75.725053,,,0,,0
3393,,"de BOULOGNE/de FONTAINEBLEAU ouest",,  45.477018, -75.726523,,,0,,2
3394,,"de BOULOGNE/de FONTAINEBLEAU est",,  45.477019, -75.726344,,,0,,2
3396,,"SAINT-LOUIS/Av. GATINEAU est",,  45.476784, -75.735029,,,0,,2
3398,,"SAINT-LOUIS/Av. GATINEAU ouest",,  45.476604, -75.734937,,,0,,2
3400,,"SAINT-LOUIS/de NANTEL est",,  45.478115, -75.737925,,,0,,2
3401,,"SAINT-LOUIS/de NANTEL est",,  45.481163, -75.739884,,,0,,2
3402,,"SAINT-LOUIS/de NANTEL ouest",,  45.481610, -75.740325,,,0,,2
3403,,"SAINT-LOUIS/de LENOIR ouest",,  45.478740, -75.738739,,,0,,2
3406,,"SAINT-LOUIS/CARTIER est",,  45.484752, -75.741735,,,0,,2
3416,,"de CANNES/de MONTE-CARLO est",,  45.488138, -75.733014,,,0,,2
3418,,"de CANNES/de MONTE-CARLO ouest",,  45.488047, -75.733140,,,0,,2
3420,,"de CANNES/de VENCE est",,  45.490551, -75.735694,,,0,,2
3421,,"de CANNES/de CASTILLOU est",,  45.489659, -75.734467,,,0,,2
3422,,"de CANNES/de VILLEFRANCHE ouest",,  45.490460, -75.735859,,,0,,2
3423,,"de CANNES/de CASTILLOU ouest",,  45.489389, -75.734501,,,0,,2
3424,,"École secondaire de L'ÉRABLIÈRE ouest",,  45.492506, -75.739738,,,0,,2
3426,,"École secondaire de L'ÉRABLIÈRE est",,  45.492687, -75.739561,,,0,,2
3430,,"SAINT-LOUIS/de MONTE-CARLO ouest",,  45.483852, -75.741634,,,0,,2
3432,,"SAINT-LOUIS/du PONT ALONZO-WRIGHT est",,  45.487612, -75.744780,,,0,,2
3433,,"SAINT-LOUIS/CARTIER ouest",,  45.485914, -75.742889,,,0,,2
3434,,"SAINT-LOUIS/du PONT ALONZO-WRIGHT sud",,  45.487787, -75.745524,,,0,,2
3435,,"SAINT-LOUIS/CARTIER est",,  45.486364, -75.742997,,,0,,2
3438,,"du PONT ALONZO-WRIGHT/SAINT-LOUIS nord",,  45.488047, -75.747166,,,0,,2
3440,,"SAINT-LOUIS/LEBAUDY est",,  45.489429, -75.747773,,,0,,2
3442,,"SAINT-LOUIS/LEBAUDY ouest",,  45.489480, -75.748247,,,0,,2
3446,,"SAINT-LOUIS/du MOULIN est",,  45.491085, -75.750495,,,0,,2
3447,,"SAINT-LOUIS/du MOULIN ouest",,  45.491172, -75.750944,,,0,,2
3448,,"SAINT-ALEXANDRE/des ÉRABLES ouest",,  45.493946, -75.753464,,,0,,2
3450,,"ARÉNA BEAUDRY départ",,  45.495098, -75.756269,,,0,,2
3452,,"PAQUIN/SAINT-LOUIS sud",,  45.495249, -75.760584,,,0,,2
3454,,"SAINT-LOUIS/des ÉRABLES est",,  45.493208, -75.756154,,,0,,2
3455,,"PAQUIN/LÉVIS-POIRIER sud",,  45.495446, -75.758002,,,0,,2
3458,,"la VÉRENDRYE OUEST/du BARRY nord",,  45.488078, -75.712572,,,0,,2
3460,,"la VÉRENDRYE OUEST/du BARRY sud",,  45.487831, -75.711856,,,0,,2
3462,,"du BARRY/DRAPEAU ouest",,  45.487459, -75.712299,,,0,,2
3463,,"du BARRY/de BOURASSA ouest",,  45.484851, -75.711934,,,0,,1
3464,,"du BARRY/de BOURASSA est",,  45.484942, -75.711730,,,0,,1
3465,,"du BARRY/d'OLIER sud",,  45.482612, -75.710089,,,0,,1
3466,,"du BARRY/d'OLIER nord",,  45.483051, -75.710478,,,0,,1
3471,,"des GRANDS-JARDINS/de la POINTE-TAILLON nord",,  45.506126, -75.751821,,,0,,0
3472,,"des GRANDS-JARDINS/de la POINTE-TAILLON sud",,  45.506111, -75.751386,,,0,,0
3473,,"des GRANDS-JARDINS/de la POINTE-PELÉE nord",,  45.505913, -75.754097,,,0,,0
3474,,"des GRANDS-JARDINS/de la POINTE-PELÉE sud",,  45.505738, -75.754812,,,0,,0
3475,,"des GRANDS-JARDINS/de PORT-DANIEL nord",,  45.504707, -75.759509,,,0,,0
3476,,"des GRANDS-JARDINS/de PORT-DANIEL sud",,  45.504622, -75.758778,,,0,,0
3477,,"des GRANDS-JARDINS/d'ANTICOSTI nord",,  45.505262, -75.757378,,,0,,0
3478,,"des GRANDS-JARDINS/d'ANTICOSTI sud",,  45.505445, -75.756843,,,0,,0
3492,,"du BARRY/le BARON ouest",,  45.481454, -75.708206,,,0,,2
3493,,"PIERRE-LAFONTAINE/ÉMILE-D'AURAY ouest",,  45.479046, -75.704657,,,0,,2
3494,,"du BARRY/le BARON est",,  45.481723, -75.708286,,,0,,2
3495,,"du BARRY/GRÉBER nord",,  45.481576, -75.703038,,,0,,2
3496,,"PIERRE-LAFONTAINE/IBERVILLE ouest",,  45.480395, -75.704827,,,0,,2
3497,,"du BARRY/GRÉBER sud",,  45.481486, -75.702960,,,0,,2
3500,,"QUAI LOCAL de la CITÉ arrivée",,  45.481457, -75.684022,,,0,,1
3501,,"QUAI LOCAL de la CITÉ départ",,  45.481602, -75.682425,,,0,,1
3502,,"PIERRE-LAFONTAINE/du BARRY est",,  45.481025, -75.704733,,,0,,2
3504,,"PIERRE-LAFONTAINE/ÉMILE-D'AURAY est",,  45.479586, -75.704536,,,0,,2
3506,,"PIERRE-LAFONTAINE/VASSAL sud",,  45.477864, -75.706485,,,0,,2
3508,,"PIERRE-LAFONTAINE/VASSAL nord",,  45.477953, -75.706703,,,0,,2
3510,,"PIERRE-LAFONTAINE/de TRACY sud",,  45.477665, -75.709540,,,0,,2
3511,,"de SILLERY/de PIERREFONDS est",,  45.475689, -75.708812,,,0,,2
3512,,"PIERRE-LAFONTAINE/de TRACY nord",,  45.477756, -75.709388,,,0,,2
3513,,"de SILLERY/de MONTFORT ouest",,  45.476348, -75.709997,,,0,,2
3514,,"de la GAPPE/CLERMONT nord",,  45.477527, -75.702834,,,0,,2
3515,,"de la GAPPE/CLERMONT sud",,  45.477439, -75.702500,,,0,,2
3516,,"GRÉBER/de la GAPPE ouest",,  45.479517, -75.701259,,,0,,2
3520,,"GRÉBER/d'ORLÉANS est",,  45.479518, -75.701029,,,0,,2
3522,,"de la GAPPE/de SILLERY nord",,  45.474881, -75.708546,,,0,,2
3523,,"GRÉBER/d'ORLÉANS ouest",,  45.480685, -75.701466,,,0,,2
3524,,"de la GAPPE/de SILLERY sud",,  45.475157, -75.707654,,,0,,2
3525,,"GRÉBER/de VARENNES ouest",,  45.490938, -75.702924,,,0,,2
3526,,"GRÉBER/d'ORLÉANS est",,  45.481226, -75.701332,,,0,,2
3527,,"GRÉBER/de VARENNES est",,  45.494329, -75.703273,,,0,,2
3531,,"GRÉBER/de VARENNES est",,  45.491209, -75.702736,,,0,,2
3535,,"la VÉRENDRYE OUEST/GRÉBER nord",,  45.489403, -75.703737,,,0,,2
3539,,"de SILLERY/de BAZIN ouest",,  45.479555, -75.709526,,,0,,2
3541,,"de SILLERY/de BAZIN est",,  45.479646, -75.709373,,,0,,2
3548,,"GRÉBER/SAINT-RENÉ ouest",,  45.487429, -75.702650,,,0,,2
3550,,"GRÉBER/SAINT-RENÉ est",,  45.487431, -75.702407,,,0,,2
3560,,"SAINT-RENÉ/de TOULOUSE nord",,  45.489091, -75.695901,,,0,,2
3561,,"SAINT-RENÉ/de la DRAVE nord",,  45.489383, -75.692257,,,0,,2
3562,,"SAINT-RENÉ/ERNEST-GABOURY sud",,  45.488912, -75.695694,,,0,,2
3563,,"SAINT-RENÉ/de la DRAVE sud",,  45.489201, -75.692473,,,0,,2
3564,,"SAINT-RENÉ/ERNEST-GABOURY sud",,  45.488717, -75.698034,,,0,,2
3565,,"SAINT-RENÉ/GRÉBER nord",,  45.488607, -75.701321,,,0,,2
3566,,"SAINT-RENÉ/ERNEST-GABOURY nord",,  45.488800, -75.699327,,,0,,2
3567,,"SAINT-RENÉ/GRÉBER sud",,  45.488427, -75.701370,,,0,,2
3568,,"NELLIGAN/LOUIS-HÉMON est",,  45.485841, -75.695861,,,0,,2
3570,,"NELLIGAN/de TROYES ouest",,  45.486384, -75.696840,,,0,,2
3572,,"NELLIGAN/de l'UNION ouest",,  45.484146, -75.694893,,,0,,2
3574,,"NELLIGAN/de la DRAVE est",,  45.483607, -75.694656,,,0,,2
3576,,"NELLIGAN/BEAUSÉJOUR ouest",,  45.481622, -75.695451,,,0,,2
3577,,"de la CITÉ/de la GAPPE ouest",,  45.484948, -75.681288,,,0,place_CGGA,2
3578,,"NELLIGAN/d'ORLÉANS est",,  45.481623, -75.695272,,,0,,2
3579,,"de la CITÉ/de la GAPPE est",,  45.484769, -75.681055,,,0,place_CGGA,2
3587,,"de la CITÉ/LAMARCHE est",,  45.480363, -75.680388,,,0,,2
3588,,"de la CITÉ/LAMARCHE ouest",,  45.480721, -75.680751,,,0,,2
3590,,"de la CITÉ/de la GAPPE est",,  45.483241, -75.680819,,,0,place_CGGA,2
3593,,"de la GAPPE/de la CITÉ nord",,  45.483855, -75.683386,,,0,place_CGGA,2
3594,,"MALONEY OUEST/de la CITÉ sud",,  45.481537, -75.679686,,,0,,2
3596,,"MALONEY OUEST/MONTÉE PAIEMENT nord",,  45.482916, -75.674801,,,0,,2
3598,,"MALONEY OUEST/MONTÉE PAIEMENT sud",,  45.482001, -75.677414,,,0,,2
3599,,"de l'HÔPITAL/SAINT-RENÉ ouest",,  45.488594, -75.688754,,,0,,2
3601,,"de l'HÔPITAL/SAINT-RENÉ est",,  45.488685, -75.688487,,,0,,2
3603,,"de l'HÔPITAL/de ROUVILLE ouest",,  45.484006, -75.688289,,,0,,2
3604,,"de la GAPPE/de ROUVILLE nord",,  45.482395, -75.686836,,,0,place_CGGA,2
3605,,"de l'HÔPITAL/de ROUVILLE est",,  45.484188, -75.687971,,,0,,2
3608,,"de la GAPPE/de ROUVILLE sud",,  45.482125, -75.686679,,,0,place_CGGA,2
3611,,"SAINT-RENÉ/de l'HÔPITAL nord",,  45.489681, -75.687616,,,0,,2
3612,,"SAINT-RENÉ/de l'HÔPITAL nord",,  45.489970, -75.684471,,,0,,2
3615,,"SAINT-RENÉ/de l'HÔPITAL sud",,  45.489397, -75.689864,,,0,,2
3616,,"SAINT-RENÉ/DUQUETTE sud",,  45.490570, -75.674394,,,0,,2
3618,,"SAINT-RENÉ/MONTÉE PAIEMENT nord",,  45.490749, -75.674524,,,0,,2
3619,,"du CARREFOUR/MONTÉE PAIEMENT nord",,  45.486424, -75.675342,,,0,,2
3620,,"SAINT-RENÉ/DUBEAU nord",,  45.490852, -75.672401,,,0,,2
3621,,"la VÉRENDRYE OUEST/de la CITÉ sud",,  45.492505, -75.681942,,,0,,2
3622,,"SAINT-RENÉ/CADIEUX sud",,  45.490766, -75.671709,,,0,,2
3623,,"la VÉRENDRYE OUEST/de la CITÉ nord",,  45.492685, -75.681983,,,0,,2
3624,,"SAINT-RENÉ OUEST/ANTOINE nord",,  45.490953, -75.670367,,,0,,2
3625,,"SAINT-RENÉ/de l'HÔPITAL sud",,  45.489598, -75.686386,,,0,,2
3626,,"SAINT-RENÉ OUEST/ANTOINE sud",,  45.490960, -75.669241,,,0,,2
3627,,"de l'HÔPITAL/de la FUTAIE ouest",,  45.487334, -75.688688,,,0,,2
3629,,"la VÉRENDRYE OUEST/de l'HÔPITAL sud",,  45.492018, -75.688143,,,0,,2
3630,,"de l'OASIS/de la CITÉ nord",,  45.494118, -75.683139,,,0,,2
3631,,"de l'OASIS/la VÉRENDRYE ouest",,  45.494029, -75.682972,,,0,,2
3634,,"DAVIDSON/de COGNAC sud",,  45.505980, -75.671301,,,0,,2
3634A,,"DAVIDSON/de COGNAC sud",,  45.505980, -75.671301,,,0,,2
3635,,"NOBERT/DAVIDSON est",,  45.505821, -75.667676,,,0,,2
3636,,"NOBERT/DAVIDSON ouest",,  45.505775, -75.667932,,,0,,2
3636A,,"NOBERT/DAVIDSON ouest",,  45.505775, -75.667932,,,0,,2
3637,,"NOBERT/RADMORE est",,  45.504110, -75.667861,,,0,,2
3638,,"NOBERT/RADMORE ouest",,  45.504289, -75.668080,,,0,,2
3638A,,"NOBERT/RADMORE ouest",,  45.504289, -75.668080,,,0,,2
3639,,"NOBERT/du PINOT sud",,  45.502656, -75.670199,,,0,,2
3640,,"NOBERT/du PINOT nord",,  45.502839, -75.669650,,,0,,2
3640A,,"NOBERT/du PINOT nord",,  45.502839, -75.669650,,,0,,2
3641,,"la VÉRENDRYE OUEST/LAFRANCE nord",,  45.497183, -75.667177,,,0,,2
3642,,"la VÉRENDRYE OUEST/LAFRANCE sud",,  45.496817, -75.668235,,,0,,2
3643,,"la VÉRENDRYE OUEST/MONTÉE PAIEMENT nord",,  45.494977, -75.674997,,,0,,2
3644,,"la VÉRENDRYE OUEST/GÉNÉREUX nord",,  45.496159, -75.672861,,,0,,2
3645,,"la VÉRENDRYE OUEST/MONTÉE PAIEMENT sud",,  45.494616, -75.675082,,,0,,2
3646,,"la VÉRENDRYE OUEST/GÉNÉREUX sud",,  45.496074, -75.672130,,,0,,2
3648,,"MONTÉE PAIEMENT/HARRIS est",,  45.496232, -75.675895,,,0,,2
3650,,"MONTÉE PAIEMENT/HARRIS ouest",,  45.495960, -75.676096,,,0,,2
3651,,"MONTÉE PAIEMENT/LAHAIE ouest",,  45.500007, -75.676670,,,0,,2
3652,,"GRÉBER/DUGAS sud",,  45.504534, -75.687464,,,0,,0
3653,,"GRÉBER/DUGAS nord",,  45.504713, -75.687555,,,0,,0
3656,,"NOBERT/de SAUTERNES nord",,  45.502449, -75.674740,,,0,,2
3656A,,"NOBERT/de SAUTERNES nord",,  45.502449, -75.674740,,,0,,2
3658,,"DAVIDSON/de SAUTERNES sud",,  45.504966, -75.675295,,,0,,2
3660,,"NOBERT/MONTÉE PAIEMENT nord",,  45.502169, -75.676414,,,0,,2
3660A,,"NOBERT/MONTÉE PAIEMENT nord",,  45.502169, -75.676414,,,0,,2
3661,,"DUGAS/GRÉBER nord",,  45.503489, -75.681575,,,0,,2
3662,,"NOBERT/de SAINT-ÉMILION sud",,  45.502360, -75.674662,,,0,,2
3663,,"NOBERT/LEBOEUF nord",,  45.500526, -75.680375,,,0,,2
3664,,"SAINT-RENÉ OUEST/ANTOINE nord",,  45.491145, -75.668398,,,0,,2
3666,,"LEMAY/TROTTIER est",,  45.501588, -75.683345,,,0,,2
3667,,"DUGAS/GRÉBER sud",,  45.503581, -75.681269,,,0,,2
3668,,"LAFRANCE/SAINT-RENÉ ouest",,  45.491244, -75.666813,,,0,,2
3669,,"LEMAY/TROTTIER ouest",,  45.501587, -75.683524,,,0,,2
3670,,"LAFRANCE/SAINT-RENÉ est",,  45.491515, -75.666662,,,0,,2
3672,,"MAGNUS/LAFRANCE sud",,  45.493315, -75.666658,,,0,,2
3674,,"MAGNUS/GUINDON nord",,  45.493604, -75.663462,,,0,,2
3675,,"NOBERT/LEBOEUF sud",,  45.500437, -75.680156,,,0,,2
3676,,"MAGNUS/GUINDON sud",,  45.493512, -75.663870,,,0,,2
3678,,"MAGNUS/SAINT-JEAN nord",,  45.493613, -75.661849,,,0,,2
3679,,"NOBERT/MONTÉE PAIEMENT sud",,  45.501889, -75.678139,,,0,,2
3680,,"MAGNUS/SAINT-MARC sud",,  45.493433, -75.661847,,,0,,2
3681A,,"DAVIDSON/de SAUTERNES sud",,  45.504984, -75.675308,,,0,,2
3682,,"MAGNUS/BRÉBEUF sud",,  45.493628, -75.659418,,,0,,2
3683,,"GRÉBER/DUGAS nord",,  45.504219, -75.693361,,,0,,2
3684,,"MAGNUS/BRÉBEUF nord",,  45.493812, -75.658652,,,0,,2
3685,,"GRÉBER/DUGAS sud",,  45.504066, -75.693385,,,0,,2
3686,,"MAGNUS/de MALTAIS sud",,  45.493917, -75.655966,,,0,,2
3687,,"de l'OASIS/du DÉSERT nord",,  45.494459, -75.686304,,,0,,2
3688,,"MAGNUS/de MALTAIS nord",,  45.494007, -75.656005,,,0,,2
3689,,"de l'OASIS/du DÉSERT sud",,  45.494188, -75.686570,,,0,,2
3690,,"MAGNUS/MAIN sud",,  45.494207, -75.652501,,,0,,2
3692,,"MAIN/MAGNUS est",,  45.493940, -75.652114,,,0,,2
3693,,"de l'HÔPITAL/de la FUTAIE est",,  45.487012, -75.688287,,,0,,2
3694,,"SAINT-RENÉ/MAIN nord",,  45.492231, -75.651736,,,0,,2
3698,,"de l'OASIS/de l'HÔPITAL nord",,  45.492914, -75.688884,,,0,,2
3701,,"GRÉBER/d'OUTREMONT nord",,  45.503284, -75.700505,,,0,,2
3702,,"SAINT-RENÉ OUEST/de la CITÉ sud",,  45.489792, -75.684008,,,0,,1
3703,,"GRÉBER/d'OUTREMONT sud",,  45.503009, -75.701321,,,0,,2
3704,,"GRÉBER/de la CÔTE-DES-NEIGES ouest",,  45.499749, -75.704544,,,0,,2
3705,,"GRÉBER/de la CÔTE-DES-NEIGES est",,  45.499660, -75.704338,,,0,,2
3706,,"NOBERT/MONTÉE PAIEMENT nord",,  45.502072, -75.677603,,,0,,2
3707,,"NOBERT/MONTÉE PAIEMENT sud",,  45.501990, -75.676245,,,0,,2
3708,,"MAIN/SAINT-RENÉ ouest",,  45.492499, -75.652174,,,0,,2
3710,,"SAINT-RENÉ/RAYMOND sud",,  45.492235, -75.651083,,,0,,2
3712,,"SAINT-RENÉ/MCMILLAN nord",,  45.492525, -75.649179,,,0,,2
3714,,"SAINT-RENÉ/MCMILLAN sud",,  45.492335, -75.649292,,,0,,2
3716,,"SAINT-RENÉ EST/MAGNUS nord",,  45.492617, -75.647210,,,0,,2
3717,,"MONTÉE PAIEMENT/SAINT-RENÉ est",,  45.491221, -75.675297,,,0,,2
3718,,"SAINT-RENÉ/de VAUQUELIN sud",,  45.492623, -75.646186,,,0,,2
3719,,"MONTÉE PAIEMENT/SAINT-RENÉ ouest",,  45.490833, -75.675510,,,0,,2
3721,,"MONTÉE PAIEMENT/FILIATREAULT est",,  45.493371, -75.675617,,,0,,2
3723,,"MONTÉE PAIEMENT/FILIATREAULT ouest",,  45.492992, -75.675805,,,0,,2
3724,,"SAINT-RENÉ EST/LABROSSE sud",,  45.493113, -75.639050,,,0,,2
3726,,"SAINT-RENÉ EST/LABROSSE nord",,  45.493294, -75.638873,,,0,,2
3727,,"de la GAPPE/DE ROUVILLE nord",,  45.483122, -75.685527,,,0,,1
3728,,"SAINT-RENÉ EST/SUNSET sud",,  45.493862, -75.633926,,,0,,2
3730,,"SAINT-RENÉ EST/SUNSET nord",,  45.493858, -75.634579,,,0,,2
3731,,"de la CITÉ/SAINT-RENÉ est",,  45.491244, -75.682042,,,0,,1
3732,,"SAINT-RENÉ EST/SUNSET sud",,  45.494684, -75.631773,,,0,,2
3733,,"de la GAPPE/de ROUVILLE sud",,  45.482944, -75.685307,,,0,,1
3734,,"SAINT-RENÉ EST/SUNSET nord",,  45.494773, -75.631889,,,0,,2
3735,,"SAINT-RENÉ/de BÉCANCOUR sud",,  45.497591, -75.626967,,,0,,2
3736,,"SAINT-RENÉ/de BÉCANCOUR sud",,  45.498948, -75.620174,,,0,,2
3737,,"SAINT-RENÉ/SUNSET nord",,  45.498044, -75.626396,,,0,,2
3738,,"SAINT-RENÉ/de BÉCANCOUR nord",,  45.499066, -75.620257,,,0,,2
3739,,"ATMEC/SAINT-RENÉ EST sud",,  45.510567, -75.572779,,,0,,1
3740,,"SAINT-RENÉ/HUBERT sud",,  45.498811, -75.617752,,,0,,2
3741,,"MALONEY EST/JOSEPH-ROY nord",,  45.489557, -75.597674,,,0,,2
3742,,"SAINT-RENÉ/HUBERT nord",,  45.498907, -75.616678,,,0,,2
3744,,"SAINT-RENÉ/du VERMONT sud",,  45.498206, -75.613099,,,0,,2
3745,,"SAINT-RENÉ EST/du CHEVAL-BLANC",,  45.505844, -75.581244,,,0,,1
3746,,"SAINT-RENÉ/du VERMONT nord",,  45.498384, -75.613447,,,0,,2
3747,,"SAINT-RENÉ/des PALOMINOS sud",,  45.505665, -75.580883,,,0,,1
3748,,"SAINT-RENÉ/GUIGUES sud",,  45.497949, -75.610652,,,0,,2
3749,,"SAINT-RENÉ EST/des PALOMINOS",,  45.506229, -75.576255,,,0,,1
3750,,"SAINT-RENÉ/GUIGUES nord",,  45.498036, -75.611203,,,0,,2
3751,,"SAINT-RENÉ/du SAROS sud",,  45.506067, -75.576241,,,0,,1
3752,,"SAINT-RENÉ/LORRAIN sud",,  45.498141, -75.608427,,,0,,2
3753,,"SAINT-RENÉ/LORRAIN nord",,  45.498326, -75.607495,,,0,,2
3754,,"SAINT-RENÉ/LORRAIN nord",,  45.498230, -75.608633,,,0,,2
3755,,"SAINT-RENÉ/ATMEC est",,  45.507691, -75.571930,,,0,,1
3756,,"SAINT-RENÉ/LORRAIN sud",,  45.498239, -75.606854,,,0,,2
3758,,"SAINT-RENÉ/BOYES sud",,  45.499247, -75.603575,,,0,,2
3759,,"SAINT-RENÉ/des PALOMINOS nord",,  45.507878, -75.572240,,,0,,1
3760,,"SAINT-RENÉ/BOYES nord",,  45.499246, -75.603780,,,0,,2
3762,,"SAINT-RENÉ/BEAUPARLANT sud",,  45.499794, -75.602173,,,0,,2
3764,,"SAINT-RENÉ/BOYES nord",,  45.499792, -75.602595,,,0,,2
3765,,"SAINT-RENÉ/TRAVERSY nord",,  45.500351, -75.599030,,,0,,2
3766,,"SAINT-RENÉ/TRAVERSY sud",,  45.500170, -75.599131,,,0,,2
3768,,"SAINT-RENÉ/des PALOMINOS sud",,  45.510656, -75.572895,,,0,,1
3769,,"SAINT-RENÉ/BERTHIAUME nord",,  45.501988, -75.595732,,,0,,2
3770,,"ATMEC/du CHEVAL-BLANC nord",,  45.510371, -75.575952,,,0,,2
3771,,"SAINT-RENÉ/BERTHIAUME sud",,  45.501626, -75.596125,,,0,,2
3773,,"SAINT-RENÉ/LAURE nord",,  45.504075, -75.592656,,,0,,2
3775,,"SAINT-RENÉ/MAX sud",,  45.503173, -75.592903,,,0,,2
3777,,"SAINT-RENÉ/MONTÉE DALTON nord",,  45.505174, -75.589007,,,0,,2
3778,,"MALONEY EST/LORRAIN sud",,  45.486844, -75.603366,,,0,,2
3779,,"SAINT-RENÉ EST/MONTÉE DALTON sud",,  45.504994, -75.588992,,,0,,2
3783,,"MALONEY EST/CHARPENTIER nord",,  45.483723, -75.611535,,,0,,2
3784,,"MALONEY EST/DORÉ sud",,  45.484730, -75.608257,,,0,,2
3785,,"MALONEY EST/DORÉ nord",,  45.485000, -75.608349,,,0,,2
3786,,"MALONEY EST/DORÉ sud",,  45.484001, -75.610015,,,0,,2
3788,,"MALONEY EST/DUPUIS nord",,  45.485820, -75.606464,,,0,,2
3790,,"MALONEY EST/DUPUIS sud",,  45.485641, -75.606258,,,0,,2
3792,,"MALONEY EST/DAMPHOUSSE nord",,  45.486549, -75.604732,,,0,,2
3794,,"MALONEY EST/LORRAIN sud",,  45.487738, -75.601149,,,0,,2
3796,,"MALONEY EST/JOSEPH-ROY sud",,  45.490199, -75.595250,,,0,,2
3798,,"MALONEY EST/JOSEPH-ROY nord",,  45.490928, -75.593632,,,0,,2
3799,,"ATMEC/du CHEVAL-BLANC sud",,  45.510191, -75.576014,,,0,,2
3800,,"MALONEY EST/PASTEUR nord",,  45.492032, -75.589113,,,0,,2
3801,,"du CHEVAL-BLANC/des PALOMINOS nord",,  45.510174, -75.579227,,,0,,2
3802,,"MALONEY EST/des SABLES sud",,  45.490841, -75.592953,,,0,,2
3803,,"MALONEY EST/PASTEUR sud",,  45.491944, -75.588664,,,0,,2
3804,,"MALONEY EST/PASTEUR nord",,  45.493224, -75.584825,,,0,,2
3805,,"MALONEY/PASTEUR sud",,  45.493045, -75.584478,,,0,,2
3806,,"MALONEY EST/COUTURE nord",,  45.494317, -75.580524,,,0,,2
3808,,"MALONEY EST/COUTURE sud",,  45.493780, -75.581619,,,0,,2
3809,,"du CHEVAL-BLANC/des FAUVETTES ouest",,  45.500083, -75.581159,,,0,,2
3811,,"du CHEVAL-BLANC/de la CHÂTEAUGUAY ouest",,  45.497925, -75.580778,,,0,,2
3813,,"de la CHÂTEAUGUAY/de PONT-ROUGE nord",,  45.497380, -75.581809,,,0,,2
3817,,"du CHEVAL-BLANC/des FAUVETTES est",,  45.500174, -75.580968,,,0,,2
3818,,"de la CHÂTEAUGUAY/de L'ASSOMPTION nord",,  45.498176, -75.584569,,,0,,2
3821,,"du CHEVAL-BLANC/des PALOMINOS sud",,  45.509993, -75.579405,,,0,,2
3822,,"NOTRE-DAME/LORRAIN sud",,  45.486289, -75.602963,,,0,,2
3823,,"NOTRE-DAME/LORRAIN nord",,  45.486106, -75.603524,,,0,,2
3824,,"NOTRE-DAME/LORRAIN nord",,  45.484566, -75.605261,,,0,,2
3826,,"NOTRE-DAME/DORÉ sud",,  45.484296, -75.605335,,,0,,2
3828,,"NOTRE-DAME/DORÉ nord",,  45.483480, -75.606362,,,0,,2
3829,,"de la CHÂTEAUGUAY/de l'ASSOMPTION sud",,  45.497908, -75.584106,,,0,,2
3830,,"NOTRE-DAME/DORÉ sud",,  45.482303, -75.607642,,,0,,2
3831,,"de la CHÂTEAUGUAY/de PONT-ROUGE sud",,  45.497292, -75.581258,,,0,,2
3832,,"NOTRE-DAME/DORÉ nord",,  45.482393, -75.607771,,,0,,2
3833,,"du CHEVAL-BLANC/de la CHÂTEAUGUAY est",,  45.497926, -75.580625,,,0,,2
3834,,"NOTRE-DAME/CAMPEAU nord",,  45.481392, -75.609667,,,0,,2
3836,,"NOTRE-DAME/CAMPEAU sud",,  45.481301, -75.609871,,,0,,2
3837,,"NOTRE-DAME/de CHAMBERLAND nord",,  45.481106, -75.612671,,,0,,2
3838,,"NOTRE-DAME/de CHAMBERLAND nord",,  45.480924, -75.614690,,,0,,2
3840,,"NOTRE-DAME/de CHAMBERLAND sud",,  45.481015, -75.612849,,,0,,2
3843,,"NOTRE-DAME/de CHAMBERLAND sud",,  45.480735, -75.614752,,,0,,2
3844,,"NOTRE-DAME/du LAC sud",,  45.480538, -75.617911,,,0,,2
3845,,"du CHEVAL-BLANC/de la FRÉGATE est",,  45.501973, -75.581281,,,0,,1
3846,,"NOTRE-DAME/du LAC nord",,  45.480709, -75.617925,,,0,,2
3847,,"du CHEVAL-BLANC/de la FRÉGATE ouest",,  45.502601, -75.581582,,,0,,1
3848,,"NOTRE-DAME/du LAC sud",,  45.480528, -75.619651,,,0,,2
3850,,"NOTRE-DAME/du LAC nord",,  45.480788, -75.619973,,,0,,2
3853,,"MONTÉE DALTON/du SOUS-BOIS est",,  45.506364, -75.588507,,,0,,1
3854,,"NOTRE-DAME/MONSEIGNEUR-LEMIEUX sud",,  45.480686, -75.623747,,,0,,2
3855,,"MONTÉE DALTON/du SOUS-BOIS ouest",,  45.506391, -75.588636,,,0,,1
3856,,"NOTRE-DAME/MONSEIGNEUR-LEMIEUX nord",,  45.480958, -75.623430,,,0,,2
3857,,"du SOUS-BOIS/des PERCHERONS sud",,  45.507888, -75.586309,,,0,,1
3858,,"NOTRE-DAME/de VERSAILLES sud",,  45.480789, -75.626410,,,0,,2
3860,,"NOTRE-DAME/de VERSAILLES nord",,  45.480943, -75.626130,,,0,,2
3862,,"NOTRE-DAME/de CÔTÉVILLE sud",,  45.480829, -75.630441,,,0,,2
3864,,"NOTRE-DAME/de CÔTÉVILLE nord",,  45.481009, -75.630443,,,0,,2
3865,,"du SOUS-BOIS/des PERCHERONS nord",,  45.507957, -75.586962,,,0,,1
3866,,"NOTRE-DAME/RACICOT nord",,  45.480904, -75.633192,,,0,,2
3867,,"du SOUS-BOIS/du CHEVAL-BLANC sud",,  45.508085, -75.582931,,,0,,1
3868,,"NOTRE-DAME/WATT sud",,  45.480722, -75.633561,,,0,,2
3869,,"du SOUS-BOIS/du CHEVAL-BLANC nord",,  45.508175, -75.582970,,,0,,1
3870,,"NOTRE-DAME/de VIMY nord",,  45.481067, -75.636304,,,0,,2
3871,,"du CHEVAL-BLANC/SAINT-RENÉ est",,  45.504780, -75.581591,,,0,,1
3872,,"NOTRE-DAME/GROULX sud",,  45.480977, -75.636251,,,0,,2
3873,,"du CHEVAL-BLANC/SAINT-RENÉ ouest",,  45.505119, -75.582196,,,0,,1
3874,,"NOTRE-DAME/LABROSSE sud",,  45.481233, -75.638864,,,0,,2
3876,,"NOTRE-DAME/BRIAN nord",,  45.481492, -75.640723,,,0,,2
3877,,"GRÉBER/DUGAS sud",,  45.504887, -75.684024,,,0,,0
3878,,"NOTRE-DAME/SAINT-ANDRÉ sud",,  45.481366, -75.642410,,,0,,2
3880,,"NOTRE-DAME/NAPOLÉON-GROULX nord",,  45.481542, -75.643154,,,0,,2
3882,,"NOTRE-DAME/FERNAND-ARVISAIS sud",,  45.481636, -75.645536,,,0,,2
3886,,"NOTRE-DAME/JEAN-RENÉ-MONETTE sud",,  45.482696, -75.647595,,,0,,2
3887,,"EAST/MALONEY est",,  45.483213, -75.646910,,,0,,1
3926,,"LABROSSE/des GÉRANIUMS est",,  45.486267, -75.639983,,,0,,2
3928,,"LABROSSE/des GÉRANIUMS ouest",,  45.486895, -75.640323,,,0,,2
3930,,"LABROSSE/de DORVAL est",,  45.488785, -75.640447,,,0,,2
3932,,"LABROSSE/CAVALIER-DE LA SALLE ouest",,  45.489503, -75.640814,,,0,,2
3934,,"LABROSSE/BENOÎT est",,  45.490223, -75.640732,,,0,,2
3940,,"LABROSSE/MARQUETTE est",,  45.494657, -75.641435,,,0,,2
3941,,"LABROSSE/MARQUETTE ouest",,  45.494539, -75.641703,,,0,,1
3942,,"LABROSSE/MARQUETTE ouest",,  45.495888, -75.641910,,,0,,2
3944,,"LABROSSE/MARQUETTE est",,  45.495799, -75.641679,,,0,,2
3946,,"LABROSSE/de CANDIAC ouest",,  45.498945, -75.642354,,,0,,2
3948,,"LABROSSE/de RIMOUSKI est",,  45.498947, -75.642137,,,0,,2
3951,,"la VÉRENDRYE EST/LABROSSE nord",,  45.500827, -75.643963,,,0,,2
3953,,"la VÉRENDRYE EST/R.-H.-LALONDE nord",,  45.500797, -75.646036,,,0,,2
3954,,"la VÉRENDRYE EST/MAIN sud",,  45.500541, -75.646648,,,0,,2
3955,,"la VÉRENDRYE EST/MAIN nord",,  45.501154, -75.649675,,,0,,2
3956,,"la VÉRENDRYE EST/LABROSSE sud",,  45.500881, -75.650184,,,0,,2
3960,,"la VÉRENDRYE EST/LABROSSE sud",,  45.500557, -75.643934,,,0,,2
3990,,"Quai local LABROSSE arrivée",,  45.490875, -75.643286,,,0,place_SLAB,1
3991,,"Quai local LABROSSE départ",,  45.490751, -75.642978,,,0,place_SLAB,1
4000,,"Parc-o-Bus Lorrain",,  45.494574, -75.607134,,,0,,1
4001,,"Parc-o-Bus Lorrain",,  45.494647, -75.606956,,,0,,1
4006,,"SAINTE-ROSE/ROBERT-CORBETT sud",,  45.495423, -75.594677,,,0,,2
4007,,"des SABLES/SAINTE-ROSE nord",,  45.495432, -75.592975,,,0,,2
4008,,"SAINTE-ROSE/ROBERT-CORBETT nord",,  45.495509, -75.595510,,,0,,2
4010,,"SAINTE-ROSE/TURGEON sud",,  45.495230, -75.597248,,,0,,2
4012,,"SAINTE-ROSE/CHIASSON nord",,  45.495314, -75.598260,,,0,,2
4014,,"SAINTE-ROSE/JEAN-LÉPINE sud",,  45.494854, -75.600149,,,0,,2
4016,,"SAINTE-ROSE/MITCHELL nord",,  45.494577, -75.601631,,,0,,2
4018,,"SAINTE-ROSE/MONETTE sud",,  45.494209, -75.603009,,,0,,2
4020,,"SAINTE-ROSE/SCHINGH nord",,  45.494152, -75.603623,,,0,,2
4022,,"SAINTE-ROSE/LORRAIN sud",,  45.493659, -75.604962,,,0,,2
4023,,"LORRAIN/de CALUMET ouest",,  45.487998, -75.603045,,,0,,2
4025,,"LORRAIN/de CALUMET est",,  45.488720, -75.602823,,,0,,2
4026,,"LORRAIN/DÉSY ouest",,  45.489528, -75.603074,,,0,,2
4028,,"SAINTE-ROSE/LORRAIN nord",,  45.493656, -75.605512,,,0,,2
4030,,"LORRAIN/HAMEL est",,  45.495445, -75.607579,,,0,,2
4032,,"LORRAIN/HAMEL ouest",,  45.495265, -75.607705,,,0,,2
4034,,"LORRAIN/SAINT-RENÉ est",,  45.498863, -75.608051,,,0,,2
4036,,"LORRAIN/SAINT-RENÉ ouest",,  45.498772, -75.608229,,,0,,2
4038,,"LORRAIN/VINCENT-LEGRIS ouest",,  45.499852, -75.608356,,,0,,2
4040,,"MALONEY EST/MITCHELL nord",,  45.488099, -75.601076,,,0,,2
4050,,"LORRAIN/MARLENE-GOYET ouest",,  45.501381, -75.608603,,,0,,2
4051,,"la VÉRENDRYE EST/LORRAIN nord",,  45.506781, -75.610325,,,0,,1
4051A,,"la VÉRENDRYE EST/LORRAIN nord arrivée",,  45.506781, -75.610325,,,0,,1
4052,,"LORRAIN/MARLENE-GOYET est",,  45.504079, -75.608875,,,0,,2
4053,,"HENRI-MATISSE/AUGUSTE-RENOIR ouest",,  45.504866, -75.613210,,,0,,1
4053A,,"HENRI-MATISSE/AUGUSTE-RENOIR ouest",,  45.504866, -75.613210,,,0,,2
4054,,"LORRAIN/des FLEURS ouest",,  45.504078, -75.609067,,,0,,2
4055,,"AUGUSTE-RENOIR/la VÉRENDRYE sud",,  45.504526, -75.609545,,,0,,1
4055A,,"AUGUSTE-RENOIR/la VÉRENDRYE sud",,  45.504526, -75.609545,,,0,,2
4056,,"LORRAIN/MARLENE-GOYET est",,  45.501741, -75.608504,,,0,,2
4058,,"LORRAIN/des FLEURS est",,  45.506328, -75.609194,,,0,,2
4060,,"LORRAIN/VINCENT-LEGRIS est",,  45.499852, -75.608202,,,0,,2
4111,,"MONTÉE PAIEMENT/SAINT-LUC est",,  45.487957, -75.674810,,,0,,2
4115,,"MONTÉE PAIEMENT/SAINT-LUC ouest",,  45.488225, -75.675146,,,0,,2
4117,,"du CARREFOUR/MONTÉE PAIEMENT sud",,  45.486242, -75.675635,,,0,,2
4122,,"MAGNUS/LAFRANCE nord",,  45.493404, -75.666902,,,0,,2
4126,,"MALONEY/ANDRÉ-MÉNARD nord",,  45.484676, -75.666351,,,0,,2
4127,,"MALONEY OUEST/MONTÉE PAIEMENT sud",,  45.482924, -75.673496,,,0,,2
4128,,"MALONEY OUEST/ANDRÉ-MÉNARD sud",,  45.484404, -75.666758,,,0,,2
4130,,"MALONEY OUEST/SAINT-LOUIS nord",,  45.483713, -75.661669,,,0,,2
4132,,"MALONEY OUEST/SAINT-LOUIS sud",,  45.483796, -75.662860,,,0,,2
4134,,"MALONEY OUEST/LAUREL nord",,  45.483700, -75.654529,,,0,,2
4138,,"MALONEY OUEST/ELM nord",,  45.483767, -75.652406,,,0,,2
4139,,"MALONEY OUEST/OAK sud",,  45.483488, -75.653848,,,0,,2
4147,,"MALONEY EST/LABROSSE nord",,  45.484833, -75.638892,,,0,,1
4149,,"MALONEY EST/LABROSSE sud",,  45.484565, -75.638454,,,0,,1
4150,,"MALONEY EST/SABOURIN sud",,  45.484600, -75.632159,,,0,,2
4152,,"MALONEY EST/ALONZO-CARRIÈRE nord",,  45.484609, -75.630547,,,0,,2
4154,,"MALONEY EST/de CÔTÉVILLE sud",,  45.484165, -75.629569,,,0,,2
4156,,"MALONEY/ACHBAR nord",,  45.484263, -75.628086,,,0,,2
4158,,"MALONEY EST/ACHBAR sud",,  45.483907, -75.627263,,,0,,2
4160,,"MALONEY EST/du LAC nord",,  45.483223, -75.620678,,,0,,2
4161,,"MALONEY EST/MONSEIGNEUR-LEMIEUX nord",,  45.482798, -75.616106,,,0,,2
4162,,"MALONEY EST/du LAC sud",,  45.482954, -75.620471,,,0,,2
4163,,"MALONEY EST/MONSEIGNEUR-LEMIEUX sud",,  45.482526, -75.616371,,,0,,2
4164,,"MALONEY EST/de CHAMBERLAND sud",,  45.482813, -75.613291,,,0,,2
4167,,"LORRAIN/des FLEURS ouest",,  45.506237, -75.609385,,,0,,2
4227,,"de CANNES/de SANARY nord",,  45.485026, -75.727036,,,0,,2
4228,,"de CANNES/de SANARY sud",,  45.484937, -75.726907,,,0,,2
4230,,"de CANNES/de RAYOL est",,  45.488465, -75.724137,,,0,,2
4231,,"de CANNES/de RAYOL ouest",,  45.488643, -75.724433,,,0,,2
4233,,"de CANNES/de SALERNES ouest",,  45.486128, -75.723569,,,0,,2
4234,,"de CANNES/de SALERNES est",,  45.485948, -75.723541,,,0,,2
4236,,"de CANNES/OSTER est",,  45.493484, -75.741594,,,0,,2
4237,,"de CANNES/OSTER ouest",,  45.493571, -75.741992,,,0,,2
4240,,"de CANNES/de CONTES est",,  45.486259, -75.731249,,,0,,2
4241,,"de CANNES/de MOUGINS sud",,  45.484917, -75.730003,,,0,,2
4242,,"de CANNES/JUAN-LES-PINS ouest",,  45.486169, -75.731363,,,0,,2
4243,,"de CANNES/de MOUGINS nord",,  45.485008, -75.729799,,,0,,2
4244,,"la VÉRENDRYE OUEST/Av. GATINEAU sud",,  45.489127, -75.719154,,,0,,2
4245,,"la VÉRENDRYE OUEST/Av. GATINEAU nord",,  45.489219, -75.718746,,,0,,2
4269,,"ALAIN/COLETTE est",,  45.496142, -75.719973,,,0,,2
4272,,"ALAIN/STÉPHANE ouest",,  45.496052, -75.720061,,,0,,2
4273,,"LEBAUDY/le GALLOIS ouest",,  45.498444, -75.740084,,,0,,2
4274,,"ALAIN/du MONT-LUC ouest",,  45.494343, -75.719860,,,0,,2
4275,,"LEBAUDY/le GALLOIS est",,  45.497814, -75.740102,,,0,,2
4277,,"le GALLOIS/RAGUENEAU nord",,  45.499742, -75.734290,,,0,,2
4278,,"le GALLOIS/ÉMARD nord",,  45.499890, -75.739207,,,0,,2
4279,,"LEBAUDY/le LOUTRE ouest",,  45.496188, -75.740925,,,0,,2
4280,,"le GALLOIS/MAJOR sud",,  45.499645, -75.735288,,,0,,2
4281,,"le GALLOIS/RATIER sud",,  45.499716, -75.738207,,,0,,2
4282,,"LEBAUDY/le LOUTRE est",,  45.496099, -75.740809,,,0,,2
4285,,"LEBAUDY/de CANNES ouest",,  45.495095, -75.743010,,,0,,2
4288,,"de CANNES/LEBAUDY nord",,  45.495275, -75.742948,,,0,,2
4289,,"des ÉRABLES/des SUCRES nord",,  45.498459, -75.751655,,,0,,1
4293,,"des ÉRABLES/de la SOURCE sud",,  45.498932, -75.750830,,,0,,0
4294,,"LEBAUDY/LUTZ sud",,  45.492195, -75.745902,,,0,,2
4296,,"LEBAUDY/LUTZ nord",,  45.492014, -75.746079,,,0,,2
4298,,"LEBAUDY/du PLATEAU-DU-RÉSERVOIR sud",,  45.490657, -75.747085,,,0,,2
4300,,"LEBAUDY/du PLATEAU-BEAULIEU nord",,  45.490837, -75.747203,,,0,,2
4301,,"SAINT-LOUIS/des ÉRABLES est",,  45.492687, -75.753229,,,0,,2
4302,,"le ROY/LEBAUDY nord",,  45.492823, -75.746282,,,0,,2
4303,,"DAVIDSON/de LANGELIER sud",,  45.506951, -75.659049,,,0,,2
4304,,"le ROY/de la TERRASSE-DAVID est",,  45.494162, -75.747951,,,0,,2
4306,,"le ROY/de la TERRASSE-DAVID ouest",,  45.493982, -75.747961,,,0,,2
4307,,"le ROY/LEBEAUDY est",,  45.492957, -75.746476,,,0,,1
4308,,"du SOMMELIER/ISSLER sud",,  45.495681, -75.749737,,,0,,2
4309,,"COLETTE/ALAIN nord",,  45.494700, -75.720364,,,0,,2
4310,,"du SOMMELIER/ISSLER nord",,  45.495596, -75.748891,,,0,,2
4311,,"COLETTE/de CANNES nord",,  45.494592, -75.723204,,,0,,2
4312,,"du SOMMELIER/ISSLER est",,  45.496849, -75.749957,,,0,,2
4313,,"COLETTE/du MONT-LUC ouest",,  45.493980, -75.727445,,,0,,2
4314,,"du SOMMELIER/des SOURCES ouest",,  45.496758, -75.750250,,,0,,2
4315,,"COLETTE/du MONT-LUC est",,  45.494080, -75.727267,,,0,,2
4317,,"du SOMMELIER/des ÉRABLES nord",,  45.498465, -75.750644,,,0,,2
4318,,"du SOMMELIER/des SOURCES sud",,  45.498284, -75.750757,,,0,,2
4319,,"des ÉRABLES/SAINT-ALEXANDRE nord",,  45.493107, -75.752860,,,0,,2
4320,,"des ÉRABLES/SAINT-ALEXANDRE nord",,  45.495116, -75.753531,,,0,,2
4321,,"des ÉRABLES/SAINT-ALEXANDRE sud",,  45.497283, -75.752510,,,0,,2
4322,,"des ÉRABLES/SAINT-ALEXANDRE sud",,  45.494757, -75.753398,,,0,,2
4323,,"des ÉRABLES/SAINT-ALEXANDRE nord",,  45.497010, -75.752865,,,0,,2
4325,,"COLETTE/de ROULIER nord",,  45.494483, -75.726185,,,0,,2
4327,,"COLETTE/de ROULIER sud",,  45.494393, -75.726107,,,0,,2
4328,,"du MONT-LUC/de CANNES sud",,  45.493774, -75.724409,,,0,,2
4329,,"STÉPHANE/ALAIN sud",,  45.496948, -75.720610,,,0,,2
4330,,"du MONT-LUC/de CANNES nord",,  45.493599, -75.723537,,,0,,2
4331,,"COLETTE/ALAIN sud",,  45.494610, -75.720325,,,0,,2
4332,,"ALAIN/COLETTE est",,  45.494434, -75.719708,,,0,,2
4333,,"STÉPHANE/ALAIN nord",,  45.497039, -75.720445,,,0,,2
4335,,"COLETTE/de CANNES sud",,  45.494495, -75.724239,,,0,,2
4339,,"STÉPHANE/de MARIA nord",,  45.497290, -75.723507,,,0,,2
4340,,"STÉPHANE/de MARIA sud",,  45.497200, -75.723506,,,0,,2
4341,,"la VÉRENDRYE OUEST/GUINDON sud",,  45.497017, -75.664782,,,0,,2
4342,,"du MONT-LUC/de CANNES nord",,  45.493964, -75.722786,,,0,,2
4343,,"la VÉRENDRYE OUEST/PAQUETTE nord",,  45.500571, -75.657310,,,0,,2
4344,,"la VÉRENDRYE OUEST/PAQUETTE sud",,  45.500301, -75.657269,,,0,,2
4345,,"de CANNES/de la PLAINE est",,  45.498906, -75.724232,,,0,,2
4346,,"de CANNES/de la PLAINE ouest",,  45.498455, -75.724405,,,0,,2
4349,,"la VÉRENDRYE OUEST/MAIN nord",,  45.500860, -75.653909,,,0,,2
4350,,"la VÉRENDRYE OUEST/MAIN sud",,  45.500683, -75.653420,,,0,,2
4351,,"de CANNES/de CAVAILLON ouest",,  45.492339, -75.723623,,,0,,2
4352,,"de CANNES/de CAVAILLON est",,  45.492574, -75.723460,,,0,,2
4353,,"le GALLOIS/JOBIN sud",,  45.499583, -75.731012,,,0,,2
4354,,"le GALLOIS/JOBIN nord",,  45.499669, -75.731640,,,0,,2
4355,,"le GALLOIS/de la PLAINE sud",,  45.499508, -75.728540,,,0,,2
4356,,"le GALLOIS/de la PLAINE nord",,  45.499690, -75.728300,,,0,,2
4357,,"de NEUVILLE/de l'HERMITAGE sud",,  45.535456, -75.485017,,,0,,1
4358,,"de l'HÔPITAL/SAINT-RENÉ ouest",,  45.490482, -75.689033,,,0,,2
4359,,"de l'AÉROPORT/ATMEC",,  45.511251, -75.561853,,,0,,0
4360,,"de l'HÔPITAL/SAINT-RENÉ est",,  45.490484, -75.688713,,,0,,2
4361,,"de l'AÉROPORT/ATMEC",,  45.511070, -75.562133,,,0,,0
4370,,"MALONEY EST/du VIEUX-PORT nord",,  45.502507, -75.564441,,,0,,2
4371,,"MALONEY EST/du VIEUX-PORT sud",,  45.502419, -75.564095,,,0,,2
4378,,"MALONEY EST/de l'AÉROPORT nord",,  45.504266, -75.561834,,,0,,2
4379,,"MALONEY EST/de l'AÉROPORT sud",,  45.503688, -75.562302,,,0,,2
4380,,"GRÉBER/BIENVENUE est",,  45.483924, -75.701826,,,0,,2
4381,,"GRÉBER/BIENVENUE ouest",,  45.483203, -75.701932,,,0,,2
4382,,"ERNEST-GABOURY/SAINT-RENÉ ouest",,  45.489169, -75.697847,,,0,,2
4383,,"GRÉBER/NELLIGAN est",,  45.486082, -75.702185,,,0,,2
4384,,"GRÉBER/NELLIGAN ouest",,  45.485631, -75.702333,,,0,,2
4385,,"ERNEST-GABOURY/SAINT-RENÉ est",,  45.489170, -75.697642,,,0,,2
4386,,"DAVIDSON/DESFORGES nord",,  45.507151, -75.658692,,,0,,2
4387,,"de l'AÉROPORT/JEAN-LOUIS-MALETTE est",,  45.505944, -75.561147,,,0,,2
4388,,"de l'AÉROPORT/JEAN-LOUIS-MALETTE ouest",,  45.505943, -75.561403,,,0,,2
4389,,"DAVIDSON/de LANGELIER nord",,  45.507330, -75.655776,,,0,,2
4390,,"la VÉRENDRYE OUEST/de l'HÔPITAL nord",,  45.492290, -75.687801,,,0,,2
4392,,"MONTÉE PAIEMENT/LAHAIE est",,  45.499919, -75.676400,,,0,,2
4393,,"DAVIDSON/LARCHER nord",,  45.508012, -75.646707,,,0,,2
4394,,"DAVIDSON/LARCHER sud",,  45.507925, -75.646118,,,0,,2
4395,,"DAVIDSON/MAIN sud",,  45.507444, -75.651540,,,0,,2
4396,,"DAVIDSON/MAIN nord",,  45.507623, -75.651747,,,0,,2
4397,,"DAVIDSON/DESFORGES sud",,  45.507243, -75.655237,,,0,,2
4398,,"DAVIDSON/P.-LABINE sud",,  45.507638, -75.649225,,,0,,2
4399,,"DAVIDSON/P.-LABINE nord",,  45.507911, -75.648678,,,0,,2
4400,,"ERNEST-GABOURY/des OUTAOUAIS ouest",,  45.487730, -75.697586,,,0,,2
4401,,"DAVIDSON/LABROSSE sud",,  45.508117, -75.644059,,,0,,2
4402,,"DAVIDSON/LABROSSE nord",,  45.508297, -75.644138,,,0,,2
4403,,"ERNEST-GABOURY/des OUTAOUAIS est",,  45.487731, -75.697394,,,0,,2
4406,,"DAVIDSON/de CASTAGNIER nord",,  45.508723, -75.640404,,,0,,2
4407,,"DAVIDSON/de CASTAGNIER sud",,  45.508589, -75.640134,,,0,,2
4408,,"DAVIDSON/de DUPARQUET nord",,  45.508425, -75.637367,,,0,,2
4409,,"DAVIDSON/de DUPARQUET sud",,  45.508600, -75.638111,,,0,,2
4410,,"DAVIDSON/A.-GIBEAULT est",,  45.506719, -75.636464,,,0,,2
4411,,"DAVIDSON/A.-GIBEAULT ouest",,  45.506539, -75.636616,,,0,,2
4412,,"DAVIDSON/de CHARNY est",,  45.502852, -75.635870,,,0,,2
4413,,"DAVIDSON/de CHARNY ouest",,  45.503031, -75.636090,,,0,,2
4414,,"la VÉRENDRYE EST/de CANDIAC sud",,  45.501123, -75.639230,,,0,,2
4415,,"la VÉRENDRYE EST/de CANDIAC nord",,  45.501257, -75.639411,,,0,,2
4416,,"de NEUVILLE/de FLEURIE nord",,  45.534090, -75.488847,,,0,,1
4417,,"de NEUVILLE/de FLEURIE sud",,  45.533911, -75.488615,,,0,,1
4418,,"de NEUVILLE/de MARGAUX nord",,  45.532546, -75.491997,,,0,,1
4419,,"de NEUVILLE/de MARGAUX sud",,  45.532457, -75.491727,,,0,,1
4420,,"de la CHÂTEAUGUAY/du SAGUENAY sud",,  45.497619, -75.587789,,,0,,2
4422,,"de la CHÂTEAUGUAY/PASTEUR sud",,  45.498077, -75.586296,,,0,,2
4423,,"de la CHÂTEAUGUAY/du SAGUENAY nord",,  45.497617, -75.588122,,,0,,2
4424,,"de la CHÂTEAUGUAY/des SABLES  nord",,  45.497148, -75.591777,,,0,,2
4425,,"des SABLES/de la CHÂTEAUGUAY est",,  45.496607, -75.592002,,,0,,2
4426,,"DAVIDSON/la VÉRENDRYE ouest",,  45.502043, -75.635772,,,0,,2
4427,,"LORRAIN/BEAUCHAMP est",,  45.491327, -75.603465,,,0,,2
4428,,"LORRAIN/BEAUCHAMP ouest",,  45.492582, -75.604361,,,0,,2
4429,,"DAVIDSON/la VÉRENDRYE EST sud",,  45.501411, -75.636097,,,0,,2
4436,,"MALONEY EST/CAMILLE nord",,  45.495608, -75.576172,,,0,,2
4437,,"MALONEY EST/CAMILLE sud",,  45.495247, -75.576374,,,0,,2
4439,,"MALONEY EST/de PÉLISSIER nord",,  45.497788, -75.572214,,,0,,2
4440,,"MALONEY EST/de PÉLISSIER sud",,  45.497355, -75.572453,,,0,,2
4441,,"de NEUVILLE/de CHAVILLE sud",,  45.530824, -75.494684,,,0,,1
4442,,"MALONEY EST/de LAVERDIÈRE nord",,  45.499786, -75.568638,,,0,,2
4443,,"MALONEY EST/de LAVERDIÈRE sud",,  45.499154, -75.569131,,,0,,2
4445,,"MALONEY EST/de la FLEUR-DE-LYS nord",,  45.501147, -75.566514,,,0,,2
4446,,"MALONEY EST/de la FLEUR-DE-LYS sud",,  45.501358, -75.565658,,,0,,2
4451,,"de l'HÔPITAL/de l'OASIS ouest",,  45.493271, -75.689297,,,0,,2
4452,,"de l'HÔPITAL/du MONT-ROYAL est",,  45.497048, -75.689907,,,0,,2
4453,,"de l'HÔPITAL/du MONT-ROYAL ouest",,  45.496417, -75.690014,,,0,,2
4458,,"ERNEST-GABOURY/du MONT-ROYAL ouest",,  45.495747, -75.696687,,,0,,2
4459,,"ERNEST-GABOURY/du MONT-ROYAL est",,  45.496017, -75.696550,,,0,,2
4460,,"ERNEST-GABOURY/PHILIPP-LENARD ouest",,  45.494398, -75.696504,,,0,,2
4461,,"ERNEST-GABOURY/PHILIPP-LENARD est",,  45.494399, -75.696312,,,0,,2
4462,,"ERNEST-GABOURY/de GRONDINES ouest",,  45.492778, -75.696433,,,0,,2
4463,,"ERNEST-GABOURY/de GRONDINES est",,  45.492598, -75.696367,,,0,,2
4464,,"ERNEST-GABOURY/de MORENCY ouest",,  45.491418, -75.698054,,,0,,2
4465,,"ERNEST-GABOURY/de MORENCY est",,  45.491419, -75.697811,,,0,,2
4468,,"ERNEST-GABOURY/JEAN-PERRIN ouest",,  45.498445, -75.697066,,,0,,2
4469,,"ERNEST-GABOURY/JEAN-PERRIN est",,  45.498446, -75.696861,,,0,,2
4470,,"de la CÔTE-DES-NEIGES/ERNEST-GABOURY nord",,  45.500344, -75.695540,,,0,,2
4471,,"de la CÔTE-DES-NEIGES/ERNEST-GABOURY sud",,  45.500341, -75.695988,,,0,,2
4472,,"de la CÔTE-DES-NEIGES/de la BRUNANTE nord",,  45.499992, -75.694192,,,0,,2
4473,,"de la CÔTE-DES-NEIGES/de la BRUNANTE sud",,  45.499900, -75.694524,,,0,,2
4474,,"de la CÔTE-DES-NEIGES/de la CHÂTELAINE nord",,  45.498924, -75.692285,,,0,,2
4475,,"de la CÔTE-DES-NEIGES/de la CHÂTELAINE sud",,  45.498746, -75.691937,,,0,,2
4476,,"LORRAIN/des POMMETIERS est",,  45.516573, -75.612287,,,0,,2
4477,,"LORRAIN/des POMMETIERS ouest",,  45.516473, -75.612453,,,0,,2
4478,,"LORRAIN/de RAINVILLE est",,  45.519787, -75.617213,,,0,,2
4479,,"LORRAIN/de RAINVILLE ouest",,  45.519962, -75.618137,,,0,,2
4480,,"LORRAIN/THÉRÈSE est",,  45.523167, -75.624511,,,0,,2
4481,,"LORRAIN/THÉRÈSE ouest",,  45.522361, -75.623887,,,0,,2
4482,,"LORRAIN/BLANCHETTE est",,  45.525770, -75.625846,,,0,,0
4483,,"SAINT-THOMAS/LORRAIN sud",,  45.529002, -75.627393,,,0,,2
4485,,"SAINT-THOMAS/de NORANDA sud",,  45.529427, -75.632046,,,0,,2
4487,,"SAINT-THOMAS/d'ARVIDA sud",,  45.532472, -75.634693,,,0,,2
4489,,"SAINT-THOMAS/d'ALMA sud",,  45.532084, -75.639722,,,0,,2
4491,,"SAINT-THOMAS/ELZÉAR sud",,  45.531701, -75.643841,,,0,,2
4492,,"ELZÉAR/IRÈNE est",,  45.528729, -75.644243,,,0,,2
4494,,"ELZÉAR/de CHAMBORD est",,  45.524412, -75.643489,,,0,,2
4496,,"de CHAMBORD/d'ALMA nord",,  45.524258, -75.638878,,,0,,2
4498,,"de CHAMBORD/de DOLBEAU nord",,  45.524546, -75.635590,,,0,,2
4500,,"de CHAMBORD/de MISTASSINI nord",,  45.524929, -75.631548,,,0,,2
4502,,"de CHAMBORD/LORRAIN nord",,  45.525223, -75.627159,,,0,,2
4515,,"des ÉRABLES/SAINT-ALEXANDRE est",,  45.493410, -75.752842,,,0,,2
4522,,"Av. de BUCKINGHAM/LÉPINE est",,  45.557492, -75.421194,,,0,,2
4524,,"ROUTE 309/LÉPINE ouest",,  45.557220, -75.421768,,,0,,2
4525,,"Lépine/Buckingham",,  45.574990, -75.412186,,,0,,1
4526,,"Av. de BUCKINGHAM/LÉPINE est",,  45.575705, -75.412845,,,0,,2
4527,,"Lépine/Buckingham",,  45.574986, -75.412366,,,0,,1
4528,,"Av. de BUCKINGHAM/LÉPINE ouest",,  45.575704, -75.413012,,,0,,2
4530,,"Av. de BUCKINGHAM/CHURCHILL est",,  45.577416, -75.412627,,,0,,2
4532,,"Av. de BUCKINGHAM/CHURCHILL ouest",,  45.577595, -75.412808,,,0,,2
4534,,"Av. de BUCKINGHAM/CHURCHILL est",,  45.579486, -75.412450,,,0,,2
4536,,"Av. de BUCKINGHAM/CHURCHILL ouest",,  45.579846, -75.412581,,,0,,2
4538,,"JOHN-F.-KENNEDY/Av. de BUCKINGHAM sud",,  45.581828, -75.412121,,,0,,2
4540,,"JOHN-F.-KENNEDY/Av. de BUCKINGHAM nord",,  45.582008, -75.412045,,,0,,2
4542,,"JOHN-F.-KENNEDY/BÉLANGER nord",,  45.583097, -75.409566,,,0,,2
4544,,"JOHN-F.-KENNEDY/BÉLANGER sud",,  45.583008, -75.409399,,,0,,2
4551,,"DOLLARD/CHURCH ouest",,  45.584723, -75.408053,,,0,,0
4552,,"CHURCH/DOLLARD sud",,  45.584995, -75.407427,,,0,,2
4553,,"CHURCH/CURÉ-BRADY sud",,  45.584913, -75.405221,,,0,,2
4554,,"CHURCH/LAFRAMBOISE nord",,  45.585185, -75.404518,,,0,,2
4556,,"CHURCH/MACLAREN EST nord",,  45.585374, -75.402071,,,0,,2
4557,,"MACLAREN EST/CHURCH est",,  45.585736, -75.401522,,,0,,2
4558,,"MACLAREN EST/BREWER ouest",,  45.587441, -75.403073,,,0,,2
4560,,"MACLAREN EST/BREWER est",,  45.586903, -75.402428,,,0,,2
4562,,"MACLAREN EST/BREWER nord",,  45.588872, -75.405544,,,0,,2
4563,,"Maclaren/Church",,  45.585107, -75.401338,,,0,,1
4564,,"MACLAREN EST/BREWER sud",,  45.588693, -75.405402,,,0,,2
4565,,"Maclaren/Sauvé",,  45.583758, -75.400777,,,0,,1
4566,,"MACLAREN EST/PAUL nord",,  45.588685, -75.407697,,,0,,2
4568,,"MACLAREN EST/PAUL sud",,  45.588596, -75.407171,,,0,,2
4569,,"LÉPINE/DES BERNACHES nord",,  45.576593, -75.390473,,,0,,2
4570,,"MACLAREN EST/JAMES nord",,  45.588405, -75.410272,,,0,,2
4571,,"Maclaren/Sauvé",,  45.583849, -75.400560,,,0,,1
4572,,"MACLAREN EST/JAMES sud",,  45.588314, -75.410540,,,0,,2
4573,,"Maclaren/Elisabeth-Chauvin",,  45.580060, -75.401152,,,0,,1
4574,,"BÉLANGER/MACLAREN EST ouest",,  45.588306, -75.412963,,,0,,2
4575,,"BÉLANGER/MACLAREN EST est",,  45.588216, -75.412757,,,0,,2
4576,,"BÉLANGER/JOSEPH ouest",,  45.589745, -75.413243,,,0,,2
4577,,"Maclaren/Elisabeth-Chauvin",,  45.580051, -75.400973,,,0,,1
4578,,"BÉLANGER/JOSEPH est",,  45.589206, -75.412944,,,0,,2
4579,,"Maclaren/Alphonse-Labelle",,  45.577816, -75.401338,,,0,,1
4580,,"BÉLANGER/ROSS ouest",,  45.592083, -75.413696,,,0,,2
4581,,"MACLAREN / ALPHONSE-LABELLE",,  45.577996, -75.401159,,,0,,1
4582,,"BÉLANGER/JEAN-XXIII est",,  45.592714, -75.413636,,,0,,2
4583,,"Maclaren/Lépine",,  45.576376, -75.401109,,,0,,1
4584,,"JEAN-XXIII/des PINS nord",,  45.592886, -75.415663,,,0,,2
4585,,"Maclaren/Lépine",,  45.576377, -75.400904,,,0,,1
4586,,"JEAN-XXIII/des PINS sud",,  45.592796, -75.415804,,,0,,2
4588,,"Av. de BUCKINGHAM/JEAN-XXIII ouest",,  45.591079, -75.417496,,,0,,2
4590,,"Av. de BUCKINGHAM/JEAN-XXIII est",,  45.591440, -75.417371,,,0,,2
4591,,"LÉPINE/FINDLAY nord",,  45.575750, -75.400195,,,0,,2
4592,,"LÉPINE/DES BERNACHES sud",,  45.576412, -75.390856,,,0,,2
4593,,"LÉPINE/FINDLAY sud",,  45.575475, -75.401385,,,0,,2
4594,,"Av. de BUCKINGHAM/JOSEPH est",,  45.588562, -75.416824,,,0,,2
4595,,"LÉPINE/DOLLARD nord",,  45.575180, -75.408419,,,0,,2
4597,,"LÉPINE/DOLLARD sud",,  45.575004, -75.407457,,,0,,2
4598,,"Av. de BUCKINGHAM/MACLAREN ouest",,  45.587301, -75.416904,,,0,,2
4600,,"MACLAREN OUEST/GEORGES nord",,  45.586205, -75.421203,,,0,,2
4602,,"MACLAREN OUEST/GEORGES sud",,  45.586257, -75.421909,,,0,,2
4604,,"KENNY/MACLAREN OUEST ouest",,  45.586555, -75.424013,,,0,,2
4606,,"KENNY/MACLAREN OUEST est",,  45.586195, -75.424062,,,0,,2
4608,,"KENNY/SPENCER ouest",,  45.585022, -75.424861,,,0,,2
4610,,"KENNY/SPENCER est",,  45.584571, -75.425037,,,0,,2
4611,,"KENNY/BRIDGE est",,  45.583037, -75.425961,,,0,,2
4612,,"KENNY/BRIDGE ouest",,  45.582676, -75.426330,,,0,,2
4614,,"BERGERON/BRIDGE est",,  45.582415, -75.423944,,,0,,2
4616,,"BERGERON/BRIDGE ouest",,  45.582144, -75.424121,,,0,,2
4618,,"BERGERON/GÉRARD-GAUTHIER ouest",,  45.580074, -75.424131,,,0,,2
4620,,"BERGERON/GÉRARD-GAUTHIER est",,  45.579894, -75.423938,,,0,,2
4622,,"l'ABBÉ/BERGERON nord",,  45.578452, -75.424632,,,0,,2
4624,,"l'ABBÉ/BERGERON sud",,  45.578634, -75.423928,,,0,,2
4627,,"CURÉ-ROY/L'ABBÉ ouest",,  45.577902, -75.427140,,,0,,2
4629,,"CURÉ-ROY/L'ABBÉ est",,  45.577993, -75.426935,,,0,,2
4631,,"CURÉ-ROY/PIERRE-LAPORTE ouest",,  45.574482, -75.427139,,,0,,2
4633,,"CURÉ-ROY/PIERRE-LAPORTE est",,  45.574753, -75.426936,,,0,,2
4634,,"CHARETTE/BERTRAND ouest",,  45.568349, -75.430271,,,0,,2
4636,,"BERTRAND/CHARETTE nord",,  45.568172, -75.429603,,,0,,2
4638,,"BERTRAND/ARTHUR-GRATTON nord",,  45.568454, -75.426286,,,0,,2
4640,,"BERTRAND/ARTHUR-GRATTON sud",,  45.568274, -75.426464,,,0,,2
4643,,"GEORGES/CARDINAL ouest",,  45.567741, -75.424384,,,0,,2
4644,,"GEORGES/CARDINAL est",,  45.567832, -75.424257,,,0,,2
4646,,"GEORGES/DAMIEN-CHARRON ouest",,  45.564948, -75.425260,,,0,,2
4648,,"GEORGES/DAMIEN-CHARRON est",,  45.564948, -75.425081,,,0,,2
4650,,"GEORGES/BOILEAUVILLE ouest",,  45.563595, -75.426045,,,0,,2
4652,,"GEORGES/BOILEAUVILLE est",,  45.563776, -75.425713,,,0,,2
4654,,"CHARETTE/RACAN est",,  45.569519, -75.430395,,,0,,2
4656,,"CHARETTE/RACAN ouest",,  45.569608, -75.430601,,,0,,2
4658,,"CHARETTE/BOULADIER est",,  45.571318, -75.430858,,,0,,2
4660,,"CHARETTE/BOULADIER ouest",,  45.571928, -75.431196,,,0,,2
4661,,"CHARETTE/PIERRE-LAPORTE ouest",,  45.573565, -75.431605,,,0,,2
4662,,"PIERRE-LAPORTE/ALBERT-FILLION nord",,  45.573929, -75.430429,,,0,,2
4663,,"CHARETTE/PIERRE-LAPORTE est",,  45.573656, -75.431439,,,0,,2
4664,,"PIERRE-LAPORTE/ALBERT-FILLION sud",,  45.573839, -75.430582,,,0,,2
4665,,"FORTERESSE/des HAUTS-BOIS est",,  45.528355, -75.482791,,,0,,1
4666,,"FORTERESSE/des HAUTS-BOIS ouest",,  45.528264, -75.482944,,,0,place_ANG,1
4667,,"FORTERESSE/du CHATELET est",,  45.530066, -75.482678,,,0,,1
4668,,"FORTERESSE/du CHATELET ouest",,  45.530155, -75.482909,,,0,,1
4669,,"FORTERESSE/TROIS-MOULINS est",,  45.532764, -75.483060,,,0,,1
4670,,"FORTERESSE/TROIS-MOULINS ouest",,  45.532673, -75.483289,,,0,,1
4671,,"FORTERESSE/de NEUVILLE est",,  45.535193, -75.483439,,,0,,1
4672,,"FORTERESSE/de NEUVILLE ouest",,  45.535102, -75.483630,,,0,,1
4689,,"LÉPINE/FINDLAY sud",,  45.575757, -75.398016,,,0,,0
4690,,"LÉPINE/FINDLAY nord",,  45.575937, -75.397992,,,0,,0
4700,,"du PROGRÈS/de GENÈVE nord",,  45.523628, -75.493674,,,0,place_ANG,2
4702,,"du PROGRÈS/de GENÈVE sud",,  45.523447, -75.493787,,,0,place_ANG,2
4703,,"de la FORTERESSE/ROUTE 148 est",,  45.526561, -75.481380,,,0,place_ANG,2
4704,,"du PROGRÈS/de LIESSE sud",,  45.524088, -75.491398,,,0,,2
4706,,"du PROGRÈS/de LIESSE nord",,  45.524086, -75.491731,,,0,,2
4708,,"ROUTE 148/de KAMOURASKA nord",,  45.521631, -75.497498,,,0,,2
4709,,"des LAURENTIDES/du PROGRÈS ouest",,  45.522898, -75.495908,,,0,,2
4710,,"ROUTE 148/de KAMOURASKA sud",,  45.521452, -75.497342,,,0,,2
4711,,"des LAURENTIDES/du PROGRÈS est",,  45.522899, -75.495729,,,0,,2
4712,,"des LAURENTIDES/de GRANDPRÉ ouest",,  45.526677, -75.496313,,,0,,2
4713,,"du PROGRÈS/de la LAURETTE-ROUTHIER nord",,  45.525006, -75.487245,,,0,,2
4714,,"des LAURENTIDES/de GRANDPRÉ est",,  45.526498, -75.495978,,,0,,2
4716,,"PARC-O-BUS GEORGES/ROUTE 148 nord",,  45.542244, -75.430892,,,0,,2
4718,,"PARC-O-BUS GEORGES/ROUTE 148 sud",,  45.542425, -75.430752,,,0,,2
4719,,"du PROGRÈS/LAURETTE-ROUTHIER sud",,  45.524916, -75.487218,,,0,,2
4721,,"du PROGRÈS/de la LAURETTE-ROUTHIER nord",,  45.525919, -75.484179,,,0,place_ANG,2
4723,,"du PROGRÈS/de la LAURETTE-ROUTHIER sud",,  45.526193, -75.483272,,,0,place_ANG,2
4724,,"ROUTE 148/de MASSON nord",,  45.545340, -75.421436,,,0,,2
4725,,"ROUTE 148/de MASSON sud",,  45.545251, -75.421192,,,0,,2
4726,,"de MASSON/SAINT-CHARLES est",,  45.546708, -75.421523,,,0,,2
4727,,"de la FORTERESSE/ROUTE 148 ouest",,  45.526470, -75.481623,,,0,place_ANG,2
4728,,"de MASSON/SAINT-CHARLES ouest",,  45.546419, -75.421700,,,0,,2
4730,,"de MASSON/des CHUTES-RHÉAUME est",,  45.548216, -75.422559,,,0,,2
4732,,"de MASSON/des CHUTES-RHÉAUME ouest",,  45.548215, -75.422738,,,0,,2
4734,,"GEORGES/FOUCAULT ouest",,  45.561338, -75.427898,,,0,,2
4736,,"GEORGES/FOUCAULT est",,  45.561609, -75.427490,,,0,,2
4738,,"GEORGES/FOUCAULT ouest",,  45.560345, -75.428557,,,0,,2
4740,,"GEORGES/FOUCAULT est",,  45.559895, -75.428618,,,0,,2
4741,,"GEORGES/de l'ÉCORCE est",,  45.558811, -75.429647,,,0,,2
4742,,"GEORGES/des LIARDS ouest",,  45.558991, -75.429533,,,0,,2
4744,,"GEORGES/de l'ÉCORCE est",,  45.556902, -75.434476,,,0,,2
4745,,"GEORGES/de l'ÉCORCE ouest",,  45.556992, -75.434413,,,0,,2
4747,,"de NEUVILLE/de l'HERMITAGE nord",,  45.535673, -75.484801,,,0,,1
4749,,"de NEUVILLE/de CHAVILLE nord",,  45.531068, -75.494571,,,0,,1
4750,,"PARC-O-BUS ENCAN de MASSON ouest",,  45.553296, -75.435870,,,0,,2
4752,,"PARC-O-BUS ENCAN de MASSON est",,  45.553477, -75.435718,,,0,,2
4753,,"GEORGES/AUTOROUTE 50 ouest",,  45.551542, -75.435729,,,0,,2
4754,,"GEORGES/FERNAND-LAFLAMME ouest",,  45.546023, -75.431356,,,0,,2
4755,,"GEORGES/AUTOROUTE 50 est",,  45.545753, -75.431162,,,0,,2
4760,,"ROUTE 148/NAPOLÉON nord",,  45.544007, -75.416725,,,0,,2
4762,,"ROUTE 148/NAPOLÉON sud",,  45.543825, -75.417172,,,0,,2
4764,,"ROUTE 148/NAPOLÉON nord",,  45.544646, -75.414244,,,0,,2
4766,,"ROUTE 148/GUY-DUBUC sud",,  45.544647, -75.413886,,,0,,2
4768,,"ROUTE 148/OLIVIER-PAGÉ nord",,  45.545833, -75.409667,,,0,,2
4770,,"ROUTE 148/LOMBARD sud",,  45.546199, -75.407928,,,0,,2
4772,,"de l'ARÉNA/LOMBARD nord",,  45.546826, -75.408611,,,0,,2
4772A,,"de l'ARÉNA/LOMBARD nord",,  45.546826, -75.408611,,,0,,2
4773,,"de l'ARÉNA/LOMBARD arrivée",,  45.546862, -75.408624,,,0,,2
4774,,"des LAURENTIDES/de GRANDPRÉ est",,  45.529916, -75.496469,,,0,,2
4776,,"des LAURENTIDES/de GRANDPRÉ ouest",,  45.530365, -75.496781,,,0,,2
5000,,"MURRAY/MACKENZIE sud",,  45.428504, -75.697214,,,0,,2
5002,,"MURRAY/PARENT sud",,  45.429332, -75.694310,,,0,,1
5003,,"KING EDWARD/CLARENCE ouest",,  45.431350, -75.688173,,,0,,1
5003A,,"KING EDWARD/CLARENCE ouest",,  45.431350, -75.688173,,,0,,2
5004,,"MURRAY/DALHOUSIE sud",,  45.430519, -75.691486,,,0,,2
5014,,"RIDEAU/CUMBERLAND nord",,  45.427838, -75.688309,,,0,place_RKE,1
5014A,,"RIDEAU/CUMBERLAND nord",,  45.427838, -75.688309,,,0,place_RKE,2
5016,,"RIDEAU/WALLER sud",,  45.427358, -75.688853,,,0,,2
5022,,"RIDEAU/SUSSEX nord",,  45.425830, -75.692886,,,0,,1
5024,,"RIDEAU/NICHOLAS sud",,  45.426290, -75.691243,,,0,,1
5024A,,"RIDEAU/NICHOLAS sud",,  45.426290, -75.691243,,,0,,0
5025,,"RIDEAU/CUMBERLAND sud",,  45.427842, -75.687759,,,0,,2
5026,,"RIDEAU/ELGIN ouest",,  45.425326, -75.694337,,,0,place_CL,2
5030,,"RIDEAU/ELGIN nord",,  45.423630, -75.697823,,,0,place_CL,1
5030A,,"RIDEAU/ELGIN nord",,  45.423630, -75.697823,,,0,place_CL,2
5032,,"WELLINGTON/METCALFE sud",,  45.423324, -75.698048,,,0,,1
5032A,,"WELLINGTON/METCALFE sud",,  45.423324, -75.698048,,,0,,0
5034,,"WELLINGTON/METCALFE nord",,  45.422918, -75.699638,,,0,,1
5034A,,"WELLINGTON/METCALFE nord",,  45.422918, -75.699638,,,0,,2
5040,,"WELLINGTON/BANK sud",,  45.421634, -75.702089,,,0,,1
5040A,,"WELLINGTON/BANK sud",,  45.421634, -75.702089,,,0,,0
5042,,"WELLINGTON/BANK nord",,  45.421448, -75.702918,,,0,,1
5042A,,"WELLINGTON/BANK nord",,  45.421448, -75.702918,,,0,,2
5048,,"WELLINGTON/LYON sud",,  45.420448, -75.704644,,,0,,1
5048A,,"WELLINGTON/LYON sud",,  45.420448, -75.704644,,,0,,0
5050,,"WELLINGTON/LYON nord",,  45.419804, -75.706847,,,0,,1
5050A,,"WELLINGTON/LYON nord",,  45.419804, -75.706847,,,0,,2
5063,,"COLOMBINE/HOLLAND nord",,  45.407627, -75.739268,,,0,,2
5079,,"PRÉ TUNNEY arrêt 3A OCT arrivée",,  45.404088, -75.735286,,,0,,2
5080,,"HOLLAND/SORREL ouest",,  45.405041, -75.735503,,,0,,2
5081,,"PRÉ TUNNEY arrêt 3A OCT départ",,  45.404233, -75.735199,,,0,,2
5082,,"HOLLAND/SORREL est",,  45.405853, -75.735233,,,0,,2
5085,,"TUNNEY'S PASTURE ouest",,  45.407731, -75.737059,,,0,,0
5086,,"TUNNEY'S PASTURE est",,  45.407736, -75.736382,,,0,,0
5500,,"ROUTE 105/PONT A.WRIGHT ouest",,  45.482210, -75.749187,,,0,,2
5501,,"PONT ALONZO WRIGHT/ROUTE 105 nord",,  45.484242, -75.750865,,,0,,2
5502,,"ROUTE 105/PONT ALONZO WRIGHT ouest",,  45.482268, -75.749968,,,0,,2
5503,,"PONT ALONZO WRIGHT/ROUTE 105 est",,  45.483884, -75.750579,,,0,,2
5535,,"ROUTE 105/PONT ALONZO WRIGHT ouest",,  45.480132, -75.746127,,,0,,2
5536,,"ROUTE 105/PONT ALONZO WRIGHT est",,  45.480225, -75.745693,,,0,,2
6301,,"Des Erables/Taché ouest",,  45.522545, -75.740708,,,0,place_DCAN,2
7050,,"ARRÊT DE COURTOISIE Érables/Tire dir sud",,  45.502430, -75.744540,,,0,,2
7051,,"ARRÊT DE COURTOISIE Érables/Tire  dir nord",,  45.502377, -75.744360,,,0,,2
7052,,"ARRÊT DE COURTOISIE Érables/Sucrerie",,  45.507737, -75.739541,,,0,,2
7053,,"ARRÊT DE COURTOISIE Érables/Sucrerie dir nord",,  45.507684, -75.739309,,,0,,2
7054,,"ARRÊT DE COURTOISIE Érables/Fleurimont dir sud",,  45.516150, -75.740048,,,0,,2
7055,,"ARRÊT DE COURTOISIE Érables/Fleurimont dir nord",,  45.516178, -75.739843,,,0,,2
7100,,"ARRÊT DE COURTOISIE Maloney est/Schryer dir nord",,  45.505510, -75.554269,,,0,,2
7101,,"ARRÊT DE COURTOISIE Maloney est/Schryer dir sud",,  45.505770, -75.554335,,,0,,2
7102,,"ARRÊT DE COURTOISIE Maloney est/Granby dir sud",,  45.506760, -75.546933,,,0,,2
7103,,"ARRÊT DE COURTOISIE Maloney est/Granby dir nord",,  45.506590, -75.546778,,,0,,2
7104,,"ARRÊT DE COURTOISIE Maloney est/Chauret dir sud",,  45.510182, -75.540975,,,0,,2
7105,,"ARRÊT DE COURTOISIE Maloney est/Chauret dir nord",,  45.510129, -75.540769,,,0,,2
7106,,"ARRÊT DE COURTOISIE Maloney est/Chauret dir sud",,  45.513292, -75.532376,,,0,,2
7107,,"ARRÊT DE COURTOISIE Maloney est/Chauret dir nord",,  45.513157, -75.532285,,,0,,2
7108,,"ARRÊT DE COURTOISIE Montréal ouest/Mongeon dir sud",,  45.515154, -75.524826,,,0,,2
7109,,"ARRÊT DE COURTOISIE Montréal ouest/Mongeon dr nord",,  45.515110, -75.524506,,,0,,2
7110,,"ARRÊT DE COURTOISIE Montréal ouest/Kamouraska dsud",,  45.517492, -75.517422,,,0,,2
7111,,"ARRÊT DE COURTOISIE Montréal ouest/Kamouraska dsud",,  45.517303, -75.517318,,,0,,2
7112,,"ARRÊT DE COURTOISIE Montréal ouest/Kamouraska dsud",,  45.518731, -75.510058,,,0,,2
7113,,"ARRÊT DE COURTOISIE Montréal ouest/Kamouraska",,  45.518543, -75.509890,,,0,,2
7114,,"ARRÊT DE COURTOISIE Montréal est/Brabant dir sud",,  45.528697, -75.476225,,,0,,2
7114A,,"ARRÊT DE COURTOISIE Montréal est/Brabant dir sud",,  45.528697, -75.476225,,,0,,2
7115,,"ARRÊT DE COURTOISIE Montréal est/ Forteresse dnord",,  45.528563, -75.476057,,,0,,2
7116,,"ARRÊT DE COURTOISIE Montréal est/Brabant dir sud",,  45.531081, -75.470200,,,0,,2
7116A,,"ARRÊT DE COURTOISIE Montréal est/Brabant dir sud",,  45.531081, -75.470200,,,0,,2
7117,,"ARRÊT DE COURTOISIE Montréal est/ Brabant dir nord",,  45.530946, -75.470058,,,0,,2
7118,,"ARRÊT DE COURTOISIE Montréal est/Brabant dir sud",,  45.532372, -75.462552,,,0,,2
7118A,,"ARRÊT DE COURTOISIE Montréal est/Brabant dir nord",,  45.532372, -75.462552,,,0,,2
7119,,"ARRÊT DE COURTOISIE Montréal est/ Brabant dir nord",,  45.532184, -75.462435,,,0,,2
7120,,"ARRÊT DE COURTOISIE Montréal est/Brabant dir sud",,  45.534531, -75.453848,,,0,,2
7120A,,"ARRÊT DE COURTOISIE Montréal est/Brabant  dir sud",,  45.534531, -75.453848,,,0,,2
7121,,"ARRÊT DE COURTOISIE Montréal est/Brabant  dir nord",,  45.534361, -75.453693,,,0,,2
7122,,"ARRÊT DE COURTOISIE Montréal est/Brabant dir sud",,  45.537561, -75.443344,,,0,,2
7122A,,"ARRÊT DE COURTOISIE Montréal est/Brabant dir sud",,  45.537561, -75.443344,,,0,,2
7123,,"ARRÊT DE COURTOISIE Montréal est/Brabant dir nord",,  45.537444, -75.443266,,,0,,2
7124,,"ARRÊT DE COURTOISIE Montréal est/Kendall dir sud",,  45.540374, -75.435168,,,0,,2
7125,,"ARRÊT DE COURTOISIE Montréal est/Kendall dir nord",,  45.540239, -75.434988,,,0,,2
7130,,"ARRÊT DE COURTOISIE Pink/Klock dir sud",,  45.441598, -75.823412,,,0,,2
7131,,"ARRÊT DE COURTOISIE Pink/Kolck dir nord",,  45.441355, -75.823383,,,0,,2
7132,,"ARRÊT DE COURTOISIE Pink/Klock dir sud",,  45.441009, -75.832635,,,0,,2
7133,,"ARRÊT DE COURTOISIE Pink/Klock dir nord",,  45.440695, -75.832605,,,0,,2
7134,,"ARRÊT DE COURTOISIE Pink/Klock dir sud",,  45.440541, -75.839981,,,0,,2
7135,,"ARRÊT DE COURTOISIE Pink/Klock dir nord",,  45.440164, -75.839847,,,0,,2
7136,,"ARRÊT DE COURTOISIE Pink/Klock dir sud",,  45.440021, -75.847120,,,0,,2
7137,,"ARRÊT DE COURTOISIE Pink/Klock dir nord",,  45.439644, -75.847000,,,0,,2
7138,,"ARRÊT DE COURTOISIE Pink/Scholle dir sud",,  45.439445, -75.854285,,,0,,2
7139,,"ARRÊT DE COURTOISIE Pink/Scholle dir nord",,  45.439094, -75.854279,,,0,,2
7140,,"ARRÊT DE COURTOISIE Pink/Scholle dir sud",,  45.438973, -75.860862,,,0,,2
7141,,"ARRÊT DE COURTOISIE Pink/Scholle dir nord",,  45.438604, -75.860806,,,0,,2
7142,,"ARRÊT DE COURTOISIE Pink/Scholle dir sud",,  45.438452, -75.867771,,,0,,2
7143,,"ARRÊT DE COURTOISIE Pink/Scholle dir nord",,  45.438093, -75.867676,,,0,,2
7144,,"ARRÊT DE COURTOISIE Pink/Vivaldi dir sud",,  45.437861, -75.875664,,,0,,2
7145,,"ARRÊT DE COURTOISIE Pink/Vivaldi dir nord",,  45.437456, -75.875619,,,0,,2
7146,,"ARRÊT DE COURTOISIE Perry/Pink dir sud",,  45.443067, -75.881141,,,0,,2
7147,,"ARRÊT DE COURTOISIE Perry/Pink dir nord",,  45.443063, -75.881639,,,0,,2
7148,,"ARRÊT DE COURTOISIE Perry/Pink dir sud",,  45.448243, -75.882193,,,0,,2
7149,,"ARRÊT DE COURTOISIE Perry/Pink dir nord",,  45.448258, -75.882628,,,0,,2
7150,,"ARRÊT DE COURTOISIE Perry/Cook",,  45.453583, -75.883159,,,0,,2
7151,,"ARRÊT DE COURTOISIE Perry/Chevreuils",,  45.458188, -75.883640,,,0,,2
7152,,"ARRÊT DE COURTOISIE Perry/Ravin",,  45.462675, -75.884183,,,0,,2
7153,,"ARRÊT DE COURTOISIE  Saisons/Ravin",,  45.464482, -75.887883,,,0,,2
7154,,"ARRÊT DE COURTOISIE  Saisons/Ravin",,  45.458791, -75.887013,,,0,,2
7155,,"ARRÊT DE COURTOISIE Chevreuils/Saisons",,  45.455461, -75.884736,,,0,,2
7156,,"ARRÊT DE COURTOISIE Cook/Boisvert dir sud",,  45.452700, -75.877403,,,0,,2
7157,,"ARRÊT DE COURTOISIE Cook/Boisvert dir nord",,  45.452942, -75.877470,,,0,,2
7158,,"ARRÊT DE COURTOISIE Cook/Boisvert dir sud",,  45.453122, -75.870529,,,0,,2
7159,,"ARRÊT DE COURTOISIE Cook/Boisvert dir nord",,  45.453490, -75.870624,,,0,,2
7160,,"ARRÊT DE COURTOISIE Cook/Boisvert dir sud",,  45.453730, -75.862737,,,0,,2
7161,,"ARRÊT DE COURTOISIE Cook/Boisvert dir nord",,  45.454034, -75.862971,,,0,,2
7162,,"ARRÊT DE COURTOISIE Cook/Beaumont dir sud",,  45.454156, -75.856348,,,0,,2
7163,,"ARRÊT DE COURTOISIE Cook/Beaumont dir nord",,  45.454578, -75.856521,,,0,,2
7164,,"ARRÊT DE COURTOISIE Cook/Klock dir sud",,  45.454658, -75.849322,,,0,,2
7165,,"ARRÊT DE COURTOISIE Cook/Klock dir nord",,  45.455063, -75.849417,,,0,,2
7166,,"ARRÊT DE COURTOISIE Cook/Klock dir sud",,  45.455160, -75.842333,,,0,,2
7167,,"ARRÊT DE COURTOISIE Cook/Klock dir nord",,  45.455610, -75.842340,,,0,,2
7168,,"ARRÊT DE COURTOISIE Cook/Simmons dir sud",,  45.455598, -75.834180,,,0,,2
7169,,"ARRÊT DE COURTOISIE Cook/Simmons dir nord",,  45.456165, -75.834214,,,0,,2
7170,,"ARRÊT DE COURTOISIE Cook/Simmons dir sud",,  45.456157, -75.826681,,,0,,2
7171,,"ARRÊT DE COURTOISIE Cook/Simmons dir nord",,  45.456660, -75.826752,,,0,,2
7172,,"ARRÊT DE COURTOISIE Vanier/Cook dir sud",,  45.458516, -75.821510,,,0,,2
7173,,"ARRÊT DE COURTOISIE Vanier/Cook dir nord",,  45.458558, -75.821958,,,0,,2
7174,,"ARRÊT DE COURTOISIE Montagne/Skyridge dir sud",,  45.461127, -75.816418,,,0,,2
7175,,"ARRÊT DE COURTOISIE Montagne/Skyridge dir nord",,  45.461553, -75.816015,,,0,,2
7176,,"ARRÊT DE COURTOISIE Montagne/Cook dir sud",,  45.458847, -75.810540,,,0,,2
7177,,"ARRÊT DE COURTOISIE Montagne/Cook dir nord",,  45.459344, -75.810253,,,0,,2
7178,,"ARRÊT DE COURTOISIE Montagne/Zéphyr dir sud",,  45.457643, -75.803770,,,0,,2
7179,,"ARRÊT DE COURTOISIE Montagne/Cook dir nord",,  45.458209, -75.803982,,,0,,2
7180,,"ARRÊT DE COURTOISIE Montagne/Zéphyr dir sud",,  45.455471, -75.797753,,,0,,2
7181,,"ARRÊT DE COURTOISIE Montagne/Zéphyr dir nord",,  45.455681, -75.797296,,,0,,2
7182,,"de la MONTAGNE/des GRIVES sud",,  45.450420, -75.787656,,,0,,2
7183,,"de la MONTAGNE/des GRIVES nord",,  45.450657, -75.787148,,,0,,2
7184,,"ARRÊT DE COURTOISIE Montagne/Brise dir sud",,  45.448103, -75.782879,,,0,,2
7185,,"ARRÊT DE COURTOISIE Montagne/Brise dir nord",,  45.448303, -75.782665,,,0,,2
7186,,"ARRÊT DE COURTOISIE Montagne/Pink dir sud",,  45.445299, -75.778365,,,0,,2
7187,,"ARRÊT DE COURTOISIE Montagne/Pink dir nord",,  45.445391, -75.778059,,,0,,2
7188,,"ARRÊT DE COURTOISIE Hochelaga/Brouage",,  45.425062, -75.791726,,,0,,2
7189,,"ARRÊT DE COURTOISIE Montagnais/Atholl-Doune d sud",,  45.415657, -75.788911,,,0,,2
7190,,"ARRÊT DE COURTOISIE Port-Royal/St-Malo dir sud",,  45.418897, -75.792944,,,0,,2
8010,,"TACHÉ-UQO nord",,  45.423973, -75.731812,,,0,,0
8011,,"TACHÉ-UQO sud",,  45.423786, -75.732102,,,0,,0
8020,,"Station MONTCALM bretelle dir nord",,  45.430826, -75.729037,,,0,,0
8021,,"Station MONTCALM bretelle dir sud",,  45.430467, -75.729220,,,0,,0
8022,,"Station MONTCALM est",,  45.430194, -75.729550,,,0,,0
8023,,"Station MONTCALM ouest",,  45.429930, -75.729714,,,0,,0
8030,,"Station LES GALERIES est",,  45.442445, -75.727844,,,0,,1
8031,,"Station LES GALERIES ouest",,  45.441641, -75.728294,,,0,,1
8040,,"Station CASINO est",,  45.445507, -75.727615,,,0,,1
8041,,"Station CASINO ouest",,  45.446046, -75.727813,,,0,,1
8050,,"Station LAC LEAMY est",,  45.452517, -75.729380,,,0,,1
8051,,"Station LAC LEAMY ouest",,  45.451438, -75.729213,,,0,,1
8060,,"Station de la GAPPE est",,  45.469344, -75.715960,,,0,,1
8061,,"Station de la GAPPE ouest",,  45.469251, -75.716483,,,0,,1
8070,,"Station PROMENADES sud",,  45.477737, -75.697860,,,0,,1
8071,,"Station PROMENADES nord",,  45.478011, -75.697185,,,0,,1
8080,,"Station de la CITÉ sud",,  45.481150, -75.683356,,,0,,1
8081,,"Station de la CITÉ nord",,  45.481114, -75.684274,,,0,,1
8081A,,"Station de la  CITÉ nord",,  45.481114, -75.684274,,,0,,1
8090,,"Station GOUIN sud",,  45.486146, -75.661288,,,0,,1
8091,,"Station GOUIN",,  45.486232, -75.661942,,,0,,1
8101,,"Station LABROSSE nord",,  45.490468, -75.643760,,,0,place_SLAB,1
8103,,"arrivée quai local LABROSSE ligne 79",,  45.490594, -75.643680,,,0,,2
9735,,"Quai local de la GAPPE arrivée",,  45.468865, -75.716299,,,0,place_SGAP,1
9736,,"Quai local de la GAPPE #7",,  45.468584, -75.716641,,,0,place_SGAP,0
9737,,"Quai local de la GAPPE #6",,  45.468629, -75.716629,,,0,place_SGAP,0
place_ANG,,"PARC-O-BUS ANGERS",,  45.523611, -75.493443,,,1,,0
place_CED,,"PARC-O-BUS DES ALLUMETTIÈRES",,  45.409211, -75.863682,,,1,,0
place_CGGA,,"DE LA CITÉ & DE LA GAPPE",,  45.483639, -75.681937,,,1,,0
place_CL,,"RIDEAU & ELGIN",,  45.425326, -75.694337,,,1,,0
place_ESL,,"ÉDIFICE LOUIS SAINT-LAURENT",,  45.445109, -75.728006,,,1,,0
place_HG,,"HULL GARAGE",,  45.466656, -75.735281,,,1,,0
place_HP,,"FREEMAN & SAINT-JOSEPH",,  45.473237, -75.740676,,,1,,0
place_PA,,"PLACE D'ACCUEIL",,  45.425576, -75.713719,,,1,,0
place_PMTB,,"École secondaire MONT-BLEU",,  45.461188, -75.770052,,,1,,0
place_PO,,"TERMINUS LES PROMENADES",,  45.474814, -75.697478,,,1,,0
place_RKE,,"RIDEAU & CUMBERLAND",,  45.428885, -75.686468,,,1,,0
place_SGAP,,"QUAI LOCAL DE LA GAPPE",,  45.468929, -75.716032,,,1,,0
place_SLAB,,"QUAI LOCAL LABROSSE",,  45.490709, -75.644001,,,1,,0
place_TC,,"TERRASSES DE LA CHAUDIÈRE",,  45.425195, -75.721410,,,1,,0
place_TPIR,,"PARC-O-BUS RIVERMEAD",,  45.403926, -75.794395,,,1,,0
place_DCAN,,"District CANTLEY",,  45.522429, -75.740617,,,1,,0
